[{"id":"L100000321014","name":"10103FF/Cold Lake Oil Asset (Alberta, Canada)","type":"field","commodity":"oil","status":"active","country":"Canada","lat":54.534,"lon":-110.394},{"id":"L100000321019","name":"10423CC/Athabasca Oil Asset (Alberta, Canada)","type":"field","commodity":"oil","status":"active","country":"Canada","lat":55.998,"lon":-113.447},{"id":"L100000321042","name":"10557K/Peace River Area 2 Oil Asset (Alberta, Canada)","type":"field","commodity":"oil","status":"active","country":"Canada","lat":56.314,"lon":-116.605},{"id":"L100000321020","name":"10587DD/Athabasca Oil Asset (Alberta, Canada)","type":"field","commodity":"oil","status":"active","country":"Canada","lat":56.123,"lon":-111.75},{"id":"L100000309329","name":"10745D/Peace River Area 2 Oil Asset (Alberta, Canada)","type":"field","commodity":"oil","status":"active","country":"Canada","lat":56.226,"lon":-116.803},{"id":"L100000321007","name":"10773QQQ/Athabasca Oil Asset (Alberta, Canada)","type":"field","commodity":"oil","status":"active","country":"Canada","lat":55.678,"lon":-110.737},{"id":"L100000321026","name":"10787R/Athabasca Oil Asset (Alberta, Canada)","type":"field","commodity":"oil","status":"active","country":"Canada","lat":55.968,"lon":-113.238},{"id":"L100000309334","name":"10828E/Cold Lake Oil Asset (Alberta, Canada)","type":"field","commodity":"oil","status":"active","country":"Canada","lat":53.759,"lon":-110.119},{"id":"L100000321041","name":"11060K/Peace River Area 2 Oil Asset (Alberta, Canada)","type":"field","commodity":"oil","status":"active","country":"Canada","lat":56.14,"lon":-116.672},{"id":"L100000309345","name":"11191C/Cold Lake Oil Asset (Alberta, Canada)","type":"field","commodity":"oil","status":"active","country":"Canada","lat":53.548,"lon":-110.817},{"id":"L100000321033","name":"11306D/Peace River Area 2 Oil Asset (Alberta, Canada)","type":"field","commodity":"oil","status":"active","country":"Canada","lat":56.256,"lon":-116.822},{"id":"L100000309416","name":"11751A/Cold Lake Oil Asset (Alberta, Canada)","type":"field","commodity":"oil","status":"active","country":"Canada","lat":53.563,"lon":-110.69},{"id":"L100000321032","name":"12471U/Athabasca Oil Asset (Alberta, Canada)","type":"field","commodity":"oil","status":"active","country":"Canada","lat":55.346,"lon":-113.785},{"id":"L100000321023","name":"12580B/Athabasca Oil Asset (Alberta, Canada)","type":"field","commodity":"oil","status":"active","country":"Canada","lat":55.321,"lon":-113.689},{"id":"L100000321040","name":"13050E/Athabasca Oil Asset (Alberta, Canada)","type":"field","commodity":"oil","status":"active","country":"Canada","lat":55.44,"lon":-113.767},{"id":"L100000321029","name":"13093J/Athabasca Oil Asset (Alberta, Canada)","type":"field","commodity":"oil","status":"active","country":"Canada","lat":55.444,"lon":-113.737},{"id":"L100000317196","name":"25 de Mayo - Medanito Sudeste LP Oil and Gas Field (La Pampa, Argentina)","type":"field","commodity":"oil/gas","status":"active","country":"Argentina","lat":-38.233,"lon":-69.267},{"id":"L100000317197","name":"25 de Mayo - Medanito Sudeste RN Oil and Gas Field (Rio Negro, Argentina)","type":"field","commodity":"oil/gas","status":"active","country":"Argentina","lat":-38.051,"lon":-67.855},{"id":"L100000321062","name":"25 Years of Independence Gas Field (Uzbekistan)","type":"field","commodity":"gas","status":"development","country":"Uzbekistan","lat":38.2,"lon":67.153},{"id":"L100000309502","name":"7990P/Cold Lake Oil Asset (Alberta, Canada)","type":"field","commodity":"oil","status":"active","country":"Canada","lat":53.592,"lon":-110.175},{"id":"L100000321039","name":"8143GG/Peace River Area 2 Oil Asset (Alberta, Canada)","type":"field","commodity":"oil","status":"active","country":"Canada","lat":56.358,"lon":-116.768},{"id":"L100000309515","name":"8179D/Cold Lake Oil Asset (Alberta, Canada)","type":"field","commodity":"oil","status":"active","country":"Canada","lat":54.371,"lon":-110.511},{"id":"L100000309523","name":"8536A/Cold Lake Oil Asset (Alberta, Canada)","type":"field","commodity":"oil","status":"active","country":"Canada","lat":54.395,"lon":-110.72},{"id":"L100000321001","name":"8591FFFF/Athabasca Oil Asset (Alberta, Canada)","type":"field","commodity":"oil","status":"active","country":"Canada","lat":55.556,"lon":-110.816},{"id":"L100000309547","name":"9266B/Cold Lake Oil Asset (Alberta, Canada)","type":"field","commodity":"oil","status":"active","country":"Canada","lat":53.65,"lon":-110.797},{"id":"L100000309549","name":"9278P/Cold Lake Oil Asset (Alberta, Canada)","type":"field","commodity":"oil","status":"active","country":"Canada","lat":54.332,"lon":-110.493},{"id":"L100000309554","name":"9387S/Cold Lake Oil Asset (Alberta, Canada)","type":"field","commodity":"oil","status":"active","country":"Canada","lat":54.016,"lon":-110.883},{"id":"L100000309561","name":"9466R/Athabasca Oil Asset (Alberta, Canada)","type":"field","commodity":"oil","status":"active","country":"Canada","lat":55.914,"lon":-113.267},{"id":"L100000321035","name":"9673Q/Athabasca Oil Asset (Alberta, Canada)","type":"field","commodity":"oil","status":"active","country":"Canada","lat":56.132,"lon":-113.03},{"id":"L100000300873","name":"A12-FA Gas Field (Netherlands)","type":"field","commodity":"gas","status":"active","country":"Netherlands","lat":55.397,"lon":3.798},{"id":"L100000300874","name":"A15-FA Gas Field (Netherlands)","type":"field","commodity":"gas","status":"active","country":"Netherlands","lat":55.309,"lon":3.827},{"id":"L100000300875","name":"A18-FA Gas Field (Netherlands)","type":"field","commodity":"gas","status":"active","country":"Netherlands","lat":55.116,"lon":3.823},{"id":"L100000304537","name":"Aasta Hansteen Oil and Gas Field (Norway)","type":"field","commodity":"oil/gas","status":"active","country":"Norway","lat":67.072,"lon":7.019},{"id":"L100000300002","name":"Abalone Oil and Gas Field (Espírito Santo, Brazil)","type":"field","commodity":"oil/gas","status":"active","country":"Brazil","lat":-21.36,"lon":-39.612},{"id":"L100000310942","name":"Abana Oil and Gas Field (Nigeria)","type":"field","commodity":"oil/gas","status":"active","country":"Nigeria","lat":4.565,"lon":8.373},{"id":"L100000310943","name":"Abang Oil Field (Nigeria)","type":"field","commodity":"oil","status":"active","country":"Nigeria","lat":4.229,"lon":7.642},{"id":"L100000317618","name":"Aban Oil Field (Iran)","type":"field","commodity":"oil","status":"active","country":"Iran","lat":32.687,"lon":47.273},{"id":"L100000317619","name":"Aban Redevelopment Oil Asset (Iran)","type":"field","commodity":"oil","status":"development","country":"Iran","lat":32.687,"lon":47.273},{"id":"L100000302763","name":"Abarco Oil and Gas Field (Boyaca, Colombia)","type":"field","commodity":"oil/gas","status":"active","country":"Colombia","lat":6.166,"lon":-74.54},{"id":"L100000314953","name":"Abbeville - Dunn Oil and Gas Asset (Louisiana, United States)","type":"field","commodity":"oil/gas","status":"active","country":"United States","lat":29.994,"lon":-92.16},{"id":"L100000313160","name":"Abbey East Milk River Gas Pool (Saskatchewan, Canada)","type":"field","commodity":"gas","status":"active","country":"Canada","lat":50.884,"lon":-108.521},{"id":"L100000313161","name":"Abbey Milk River Gas Pool (Saskatchewan, Canada)","type":"field","commodity":"gas","status":"active","country":"Canada","lat":50.731,"lon":-108.566},{"id":"L100000313162","name":"Abbey North Milk River Gas Pool (Saskatchewan, Canada)","type":"field","commodity":"gas","status":"active","country":"Canada","lat":50.891,"lon":-108.799},{"id":"L100000312417","name":"Abdalli Oil Field (Kuwait)","type":"field","commodity":"oil","status":"active","country":"Kuwait","lat":30.045,"lon":47.775},{"id":"L100000312408","name":"Abduliyah Oil and Gas Field (Kuwait)","type":"field","commodity":"oil/gas","status":"active","country":"Kuwait","lat":29.083,"lon":47.685},{"id":"L100000313164","name":"Aberfeldy GP Oil Pool (Saskatchewan, Canada)","type":"field","commodity":"oil","status":"active","country":"Canada","lat":53.248,"lon":-109.81},{"id":"L100000313165","name":"Aberfeldy South Sparky Oil Pool (Saskatchewan, Canada)","type":"field","commodity":"oil","status":"active","country":"Canada","lat":53.246,"lon":-109.81},{"id":"L100000318223","name":"Abigail Gas Field (United Kingdom)","type":"field","commodity":"gas","status":"active","country":"United Kingdom","lat":56.796,"lon":1.887},{"id":"L100000310945","name":"Abiteye Oil and Gas Field (Nigeria)","type":"field","commodity":"oil/gas","status":"active","country":"Nigeria","lat":5.663,"lon":5.296},{"id":"L100000302349","name":"Abkatún Oil and Gas Field (Federal Offshore, Mexico)","type":"field","commodity":"oil/gas","status":"active","country":"Mexico","lat":19.249,"lon":-92.188},{"id":"L100000310946","name":"Abo Oil and Gas Field (Nigeria)","type":"field","commodity":"oil/gas","status":"active","country":"Nigeria","lat":5.761,"lon":4.466},{"id":"L100000314119","name":"Abqaiq Oil Field (Saudi Arabia)","type":"field","commodity":"oil","status":"active","country":"Saudi Arabia","lat":26.169,"lon":49.784},{"id":"L100000312911","name":"Absheron Oil and Gas Field (Azerbaijan)","type":"field","commodity":"oil/gas","status":"active","country":"Azerbaijan","lat":40.009,"lon":50.798},{"id":"L100000312210","name":"Abteymour Oil Field (Iran)","type":"field","commodity":"oil","status":"active","country":"Iran","lat":31.174,"lon":48.526},{"id":"L100000312260","name":"Abu Al Bukhoosh Oil and Gas Field (United Arab Emirates)","type":"field","commodity":"oil/gas","status":"active","country":"United Arab Emirates","lat":24.422,"lon":53.313},{"id":"L100000312721","name":"Abu Attifel Oil and Gas Field (Libya)","type":"field","commodity":"oil/gas","status":"active","country":"Libya","lat":26.418,"lon":18.37},{"id":"L100000312507","name":"Abu Butabul Oil and Gas Field (Oman)","type":"field","commodity":"oil/gas","status":"active","country":"Oman","lat":21.178,"lon":55.854},{"id":"L100000312558","name":"Abu Butabu North Oil and Gas Field (Oman)","type":"field","commodity":"oil/gas","status":"active","country":"Oman","lat":21.178,"lon":55.854},{"id":"L100000311623","name":"Abu El Gharadig Oil and Gas Field (Egypt)","type":"field","commodity":"oil/gas","status":"active","country":"Egypt","lat":29.672,"lon":28.534},{"id":"L100000311948","name":"Abu Gharb Oil Field (Iraq)","type":"field","commodity":"oil","status":"active","country":"Iraq","lat":32.365,"lon":47.306},{"id":"L100000319106","name":"Abu Hadriya Oil Field (Saudi Arabia)","type":"field","commodity":"oil","status":"active","country":"Saudi Arabia","lat":27.312,"lon":49.005},{"id":"L100000311625","name":"Abu Madi Gas Field (Egypt)","type":"field","commodity":"gas","status":"active","country":"Egypt","lat":31.361,"lon":31.178},{"id":"L100000320255","name":"Abu Rudies-Sidri Oil Field (Egypt)","type":"field","commodity":"oil","status":"active","country":"Egypt","lat":28.864,"lon":33.167},{"id":"L100000318037","name":"Abu Sa`fah Oil Field (Saudi Arabia, Bahrain)","type":"field","commodity":"oil","status":"active","country":"Saudi Arabia","lat":26.79,"lon":50.431},{"id":"L100000312192","name":"Abuzar Oil Field (Iran)","type":"field","commodity":"oil","status":"active","country":"Iran","lat":29.292,"lon":49.532},{"id":"L100000312752","name":"Acacia Oil and Gas Field (Angola)","type":"field","commodity":"oil/gas","status":"active","country":"Angola","lat":-7.662,"lon":11.987},{"id":"L100000302766","name":"Acae San Miguel Oil and Gas Field (Putumayo, Colombia)","type":"field","commodity":"oil/gas","status":"active","country":"Colombia","lat":0.324,"lon":-76.915},{"id":"L100000309196","name":"Acema Oil Field (Venezuela)","type":"field","commodity":"oil","status":"active","country":"Venezuela","lat":9.193,"lon":-63.581},{"id":"L100000308183","name":"Acheson East Oil and Gas Field (Alberta, Canada)","type":"field","commodity":"oil/gas","status":"active","country":"Canada","lat":53.525,"lon":-113.662},{"id":"L100000308182","name":"Acheson Oil and Gas Field (Alberta, Canada)","type":"field","commodity":"oil/gas","status":"active","country":"Canada","lat":53.53,"lon":-113.752},{"id":"L100000312123","name":"Achimovskoye Oil and Gas Field (Khanty-Mansi Autonomous Okrug, Russia)","type":"field","commodity":"oil/gas","status":"active","country":"Russia","lat":60.07,"lon":75.34},{"id":"L100000302769","name":"Acordionero Oil and Gas Field (Cesar, Colombia)","type":"field","commodity":"oil/gas","status":"active","country":"Colombia","lat":7.907,"lon":-73.566},{"id":"L100000317993","name":"Ac Quy Oil and Gas Field (Vietnam)","type":"field","commodity":"oil/gas","status":"development","country":"Vietnam","lat":8.119,"lon":103.224},{"id":"L100000320850","name":"Actul Oil and Gas Field (Mexico)","type":"field","commodity":"oil/gas","status":"active","country":"Mexico","lat":18.024,"lon":-94.223},{"id":"L100000302770","name":"Adalia Oil Field (Casanare, Colombia)","type":"field","commodity":"oil","status":"active","country":"Colombia","lat":5.067,"lon":-71.103},{"id":"L100000321080","name":"Adamtash Oil and Gas Field (Uzbekistan)","type":"field","commodity":"oil/gas","status":"active","country":"Uzbekistan","lat":38.737,"lon":67.599},{"id":"L100000310951","name":"Adanga South Oil and Gas Field (Nigeria)","type":"field","commodity":"oil/gas","status":"active","country":"Nigeria","lat":4.877,"lon":7.291},{"id":"L100000320427","name":"Adas Oil and Gas Field (Venezuela)","type":"field","commodity":"oil/gas","status":"active","country":"Venezuela","lat":8.919,"lon":-63.337},{"id":"L100000316378","name":"Ada - Tanos Oil and Gas Asset (Louisiana, United States)","type":"field","commodity":"oil/gas","status":"active","country":"United States","lat":32.514,"lon":-93.143},{"id":"L100000308185","name":"Aden Oil and Gas Field (Alberta, Canada)","type":"field","commodity":"oil/gas","status":"active","country":"Canada","lat":49.076,"lon":-111.17},{"id":"L100000313008","name":"Adhi Oil and Gas Field (Pakistan)","type":"field","commodity":"oil/gas","status":"active","country":"Pakistan","lat":33.154,"lon":73.177},{"id":"L100000304561","name":"Ærfugl Nord Oil and Gas Field (Norway)","type":"field","commodity":"oil/gas","status":"active","country":"Norway","lat":65.937,"lon":7.713},{"id":"L100000304509","name":"Ærfugl Oil and Gas Field (Norway)","type":"field","commodity":"oil/gas","status":"active","country":"Norway","lat":65.716,"lon":7.553},{"id":"L100000308186","name":"Aerial Oil and Gas Field (Alberta, Canada)","type":"field","commodity":"oil/gas","status":"active","country":"Canada","lat":51.477,"lon":-112.467},{"id":"L100000321386","name":"Aer Oil Field (Inner Mongolia, China)","type":"field","commodity":"oil","status":"active","country":"China","lat":46.155,"lon":116.549},{"id":"L100000321385","name":"Aershan Oil Field (Inner Mongolia, China)","type":"field","commodity":"oil","status":"active","country":"China","lat":44.576,"lon":115.668},{"id":"L100000310957","name":"Afam Oil Field (Nigeria)","type":"field","commodity":"oil","status":"active","country":"Nigeria","lat":4.801,"lon":7.321},{"id":"L100000310960","name":"Afiesere/Eriemu Oil Field (Nigeria)","type":"field","commodity":"oil","status":"active","country":"Nigeria","lat":5.545,"lon":6.027},{"id":"L100000312124","name":"Aganskoye Oil and Gas Field (Khanty-Mansi Autonomous Okrug, Russia)","type":"field","commodity":"oil/gas","status":"active","country":"Russia","lat":61.434,"lon":76.099},{"id":"L100000302771","name":"Agapanto Oil and Gas Field (Putumayo, Colombia)","type":"field","commodity":"oil/gas","status":"active","country":"Colombia","lat":0.845,"lon":-76.571},{"id":"L100000302557","name":"Agave Oil and Gas Field (Tabasco, Mexico)","type":"field","commodity":"oil/gas","status":"active","country":"Mexico","lat":17.727,"lon":-92.89},{"id":"L100000302772","name":"Agave Oil Field (Casanare, Colombia)","type":"field","commodity":"oil","status":"active","country":"Colombia","lat":5.355,"lon":-71.267},{"id":"L100000310965","name":"Agbada Oil and Gas Field (Nigeria)","type":"field","commodity":"oil/gas","status":"active","country":"Nigeria","lat":4.937,"lon":6.975},{"id":"L100000310967","name":"Agbara Oil and Gas Field (Nigeria)","type":"field","commodity":"oil/gas","status":"active","country":"Nigeria","lat":3.928,"lon":6.386},{"id":"L100000312187","name":"Aghajari Oil Field (Iran)","type":"field","commodity":"oil","status":"active","country":"Iran","lat":30.831,"lon":49.76},{"id":"L100000312182","name":"Aghar Gas Field (Iran)","type":"field","commodity":"gas","status":"active","country":"Iran","lat":28.595,"lon":52.795},{"id":"L100000312753","name":"Agogo Oil Field (Angola)","type":"field","commodity":"oil","status":"active","country":"Angola","lat":-6.065,"lon":10.954},{"id":"L100000317198","name":"Aguada Baguales Oil and Gas Field (Neuquén, Argentina)","type":"field","commodity":"oil/gas","status":"active","country":"Argentina","lat":-38.817,"lon":-68.953},{"id":"L100000317199","name":"Aguada Cánepa Oil and Gas Field (Neuquén, Argentina)","type":"field","commodity":"oil/gas","status":"active","country":"Argentina","lat":-38.076,"lon":-68.465},{"id":"L100000317200","name":"Aguada de Castro Oil and Gas Field (Neuquén, Argentina)","type":"field","commodity":"oil/gas","status":"active","country":"Argentina","lat":-38.264,"lon":-69.567},{"id":"L100000317201","name":"Aguada de la Arena Oil and Gas Field (Neuquén, Argentina)","type":"field","commodity":"oil/gas","status":"active","country":"Argentina","lat":-38.22,"lon":-69.153},{"id":"L100000317203","name":"Aguada del Chivato Oil and Gas Field (Neuquén, Argentina)","type":"field","commodity":"oil/gas","status":"active","country":"Argentina","lat":-37.495,"lon":-68.977},{"id":"L100000317202","name":"Aguada de los Indios Sur Oil and Gas Field (Rio Negro, Argentina)","type":"field","commodity":"oil/gas","status":"active","country":"Argentina","lat":-38.462,"lon":-67.779},{"id":"L100000317204","name":"Aguada Federal Oil and Gas Field (Neuquén, Argentina)","type":"field","commodity":"oil/gas","status":"active","country":"Argentina","lat":-38.089,"lon":-68.723},{"id":"L100000317205","name":"Aguada los Loros Oil and Gas Field (Neuquén, Argentina)","type":"field","commodity":"oil/gas","status":"active","country":"Argentina","lat":-37.728,"lon":-69.369},{"id":"L100000317206","name":"Aguada Pichana Este Mulichinco Oil and Gas Field (Neuquén, Argentina)","type":"field","commodity":"oil/gas","status":"active","country":"Argentina","lat":-38.389,"lon":-69.166},{"id":"L100000317207","name":"Aguada Pichana Este Vaca Muerta Oil and Gas Field (Neuquén, Argentina)","type":"field","commodity":"oil/gas","status":"active","country":"Argentina","lat":-38.345,"lon":-69.213},{"id":"L100000317208","name":"Aguada Pichana Oeste Oil and Gas Field (Neuquén, Argentina)","type":"field","commodity":"oil/gas","status":"active","country":"Argentina","lat":-38.38,"lon":-69.408},{"id":"L100000317209","name":"Aguada San Roque Oil and Gas Field (Neuquén, Argentina)","type":"field","commodity":"oil/gas","status":"active","country":"Argentina","lat":-37.955,"lon":-69.003},{"id":"L100000317210","name":"Aguada Toledo Oil and Gas Field (Neuquén, Argentina)","type":"field","commodity":"oil/gas","status":"active","country":"Argentina","lat":-38.752,"lon":-68.819},{"id":"L100000302374","name":"Agua Fría Oil and Gas Field (Puebla; Veracruz, Mexico)","type":"field","commodity":"oil/gas","status":"active","country":"Mexico","lat":20.538,"lon":-97.655},{"id":"L100000300470","name":"Água Grande Oil and Gas Field (Bahia, Brazil)","type":"field","commodity":"oil/gas","status":"active","country":"Brazil","lat":-12.371,"lon":-38.344},{"id":"L100000302520","name":"Agua Nacida Oil and Gas Field (Veracruz, Mexico)","type":"field","commodity":"oil/gas","status":"active","country":"Mexico","lat":20.863,"lon":-97.681},{"id":"L100000304595","name":"Aguarico Oil and Gas Field (Ecuador)","type":"field","commodity":"oil/gas","status":"active","country":"Ecuador","lat":-0.153,"lon":-76.662},{"id":"L100000305187","name":"Aguasay Oil Field (Venezuela)","type":"field","commodity":"oil","status":"active","country":"Venezuela","lat":9.318,"lon":-63.841},{"id":"L100000302774","name":"Aguas Blancas (Parex) Oil and Gas Field (Santander, Colombia)","type":"field","commodity":"oil/gas","status":"active","country":"Colombia","lat":6.816,"lon":-73.786},{"id":"L100000320005","name":"Aguas Vivas Gas Field (Cordoba, Colombia)","type":"field","commodity":"gas","status":"active","country":"Colombia","lat":8.658,"lon":-75.36},{"id":"L100000321407","name":"Aguila Vado (Eagleford) - Wildfire Energy Operating Oil and Gas Asset (Texas, United States)","type":"field","commodity":"oil/gas","status":"active","country":"United States","lat":30.655,"lon":-96.443},{"id":"L100000300006","name":"Aguilhada Oil and Gas Field (Sergipe, Brazil)","type":"field","commodity":"oil/gas","status":"active","country":"Brazil","lat":-10.686,"lon":-36.889},{"id":"L100000300007","name":"Agulha Oil and Gas Field (Rio Grande do Norte, Brazil)","type":"field","commodity":"oil/gas","status":"active","country":"Brazil","lat":-4.899,"lon":-36.262},{"id":"L100000310968","name":"Agwe Oil and Gas Field (Nigeria)","type":"field","commodity":"oil/gas","status":"active","country":"Nigeria","lat":5.604,"lon":6.607},{"id":"L100000311949","name":"Ahdab Oil and Gas Field (Iraq)","type":"field","commodity":"oil/gas","status":"active","country":"Iraq","lat":32.424,"lon":45.714},{"id":"L100000319744","name":"Ahmer Oil Field (Syria)","type":"field","commodity":"oil","status":"active","country":"Syria","lat":34.54,"lon":40.844},{"id":"L100000313152","name":"Ahmeyim Oil and Gas Field (Senegal)","type":"field","commodity":"oil/gas","status":"active","country":"Senegal","lat":16.123,"lon":-17.629},{"id":"L100000317424","name":"Ahnet Gas Field (Algeria)","type":"field","commodity":"gas","status":"development","country":"Algeria","lat":24,"lon":2},{"id":"L100000312129","name":"Ahvaz-Asmari Oil Field (Iran)","type":"field","commodity":"oil","status":"active","country":"Iran","lat":31.312,"lon":48.812},{"id":"L100000312143","name":"Ahvaz-Bangestan Oil Field (Iran)","type":"field","commodity":"oil","status":"active","country":"Iran","lat":31.312,"lon":48.812},{"id":"L100000319627","name":"Ain dar Oil Field (Saudi Arabia)","type":"field","commodity":"oil","status":"active","country":"Saudi Arabia","lat":25.949,"lon":49.424},{"id":"L100000312601","name":"Ain Tsila Oil and Gas Field (Algeria)","type":"field","commodity":"oil/gas","status":"active","country":"Algeria","lat":27.693,"lon":8.012},{"id":"L100000300479","name":"Aitingen Oil and Gas Field (Bayern, Germany)","type":"field","commodity":"oil/gas","status":"active","country":"Germany","lat":48.221,"lon":10.809},{"id":"L100000319638","name":"Aitken - Aitken Gas Oil and Gas Asset (British Columbia, Canada)","type":"field","commodity":"oil/gas","status":"active","country":"Canada","lat":56.954,"lon":-121.944},{"id":"L100000321051","name":"Aitken Creek North - Tourmaline Gas Asset (British Columbia, Canada)","type":"field","commodity":"gas","status":"active","country":"Canada","lat":57.036,"lon":-122.036},{"id":"L100000311687","name":"Aitken Creek Oil and Gas Field (British Columbia, Canada)","type":"field","commodity":"oil/gas","status":"active","country":"Canada","lat":56.954,"lon":-121.944},{"id":"L100000311950","name":"Ajeel Oil and Gas Field (Iraq)","type":"field","commodity":"oil/gas","status":"active","country":"Iraq","lat":35.019,"lon":43.744},{"id":"L100000302776","name":"Akacias (Acacias) Oil and Gas Field (Meta, Colombia)","type":"field","commodity":"oil/gas","status":"active","country":"Colombia","lat":3.954,"lon":-73.735},{"id":"L100000302777","name":"Akacias (Guamal) Oil Field (Meta, Colombia)","type":"field","commodity":"oil","status":"active","country":"Colombia","lat":3.954,"lon":-73.735},{"id":"L100000320851","name":"Akal NW Oil and Gas Field (Mexico)","type":"field","commodity":"oil/gas","status":"active","country":"Mexico","lat":19.507,"lon":-92.069},{"id":"L100000302259","name":"Akal Oil and Gas Field (Federal Offshore, Mexico)","type":"field","commodity":"oil/gas","status":"active","country":"Mexico","lat":19.399,"lon":-92.053},{"id":"L100000319745","name":"Akash Oil Field (Syria)","type":"field","commodity":"oil","status":"active","country":"Syria","lat":34.403,"lon":40.737},{"id":"L100000302778","name":"Akira Oil Field (Casanare, Colombia)","type":"field","commodity":"oil","status":"active","country":"Colombia","lat":4.347,"lon":-72.731},{"id":"L100000311951","name":"Akkas Gas Field (Iraq)","type":"field","commodity":"gas","status":"active","country":"Iraq","lat":34.115,"lon":41.18},{"id":"L100000320979","name":"Akkas Redevelopment Gas Field (Iraq)","type":"field","commodity":"gas","status":"development","country":"Iraq","lat":34.115,"lon":41.18},{"id":"L100000310977","name":"Akpo Oil and Gas Field (Nigeria)","type":"field","commodity":"oil/gas","status":"active","country":"Nigeria","lat":3.153,"lon":6.586},{"id":"L100000312689","name":"Akshabulak Oil and Gas Field (Kazakhstan)","type":"field","commodity":"oil/gas","status":"active","country":"Kazakhstan","lat":46.572,"lon":65.324},{"id":"L100000314164","name":"Alabama Bend - Aethon Gas Asset (Louisiana, United States)","type":"field","commodity":"gas","status":"active","country":"United States","lat":32.308,"lon":-93.344},{"id":"L100000317753","name":"Alabama Bend - Bpx Operating Company Gas Asset (Louisiana, United States)","type":"field","commodity":"gas","status":"active","country":"United States","lat":32.307,"lon":-93.419},{"id":"L100000313166","name":"Alameda East Frobisher Oil Pool (Saskatchewan, Canada)","type":"field","commodity":"oil","status":"active","country":"Canada","lat":49.297,"lon":-102.172},{"id":"L100000313167","name":"Alameda Midale Oil Pool (Saskatchewan, Canada)","type":"field","commodity":"oil","status":"active","country":"Canada","lat":49.23,"lon":-102.229},{"id":"L100000313168","name":"Alameda West Frobisher Oil Pool (Saskatchewan, Canada)","type":"field","commodity":"oil","status":"active","country":"Canada","lat":49.291,"lon":-102.371},{"id":"L100000321068","name":"Alan Oil and Gas Field (Uzbekistan)","type":"field","commodity":"oil/gas","status":"active","country":"Uzbekistan","lat":38.821,"lon":64.998},{"id":"L100000300009","name":"Albacora Leste Oil and Gas Field (Rio de Janeiro, Brazil)","type":"field","commodity":"oil/gas","status":"active","country":"Brazil","lat":-22.111,"lon":-39.746},{"id":"L100000300008","name":"Albacora Oil and Gas Field (Rio de Janeiro, Brazil)","type":"field","commodity":"oil/gas","status":"active","country":"Brazil","lat":-22.131,"lon":-39.961},{"id":"L100000301867","name":"Alba Oil and Gas Field (United Kingdom)","type":"field","commodity":"oil/gas","status":"active","country":"United Kingdom","lat":58.036,"lon":1.109},{"id":"L100000312458","name":"Al Bunduq Oil and Gas Field (Qatar)","type":"field","commodity":"oil/gas","status":"active","country":"Qatar","lat":25.126,"lon":52.609},{"id":"L100000301868","name":"Albury Oil and Gas Field (United Kingdom)","type":"field","commodity":"oil/gas","status":"active","country":"United Kingdom","lat":51.208,"lon":-0.521},{"id":"L100000312263","name":"Al-Dabbiya Oil and Gas Field (United Arab Emirates)","type":"field","commodity":"oil/gas","status":"active","country":"United Arab Emirates","lat":24.248,"lon":54.172},{"id":"L100000301869","name":"Alder Oil and Gas Field (United Kingdom)","type":"field","commodity":"oil/gas","status":"active","country":"United Kingdom","lat":58.1,"lon":0.699},{"id":"L100000308191","name":"Alderson Oil and Gas Field (Alberta, Canada)","type":"field","commodity":"oil/gas","status":"active","country":"Canada","lat":50.268,"lon":-111.464},{"id":"L100000301435","name":"Aleksandrówka Gas Field (Poland)","type":"field","commodity":"gas","status":"active","country":"Poland","lat":51.596,"lon":16.475},{"id":"L100000323009","name":"Alexander - Grayson Mill Operating, Llc Oil and Gas Asset (North Dakota, United States)","type":"field","commodity":"oil/gas","status":"active","country":"United States","lat":47.893,"lon":-103.564},{"id":"L100000308192","name":"Alexander Oil and Gas Field (Alberta, Canada)","type":"field","commodity":"oil/gas","status":"active","country":"Canada","lat":53.828,"lon":-113.986},{"id":"L100000321097","name":"Alexander Zhagrin Oil Field (Khanty-Mansi Autonomous Okrug, Russia)","type":"field","commodity":"oil","status":"active","country":"Russia","lat":59.834,"lon":68.799},{"id":"L100000300481","name":"Alfeld-Elze/Hildesheimer-Wald Gas Field (Germany)","type":"field","commodity":"gas","status":"active","country":"Germany","lat":52.136,"lon":9.744},{"id":"L100000322998","name":"Alger - Grayson Mill Operating, Llc Oil and Gas Asset (North Dakota, United States)","type":"field","commodity":"oil/gas","status":"active","country":"United States","lat":48.256,"lon":-102.569},{"id":"L100000323033","name":"Alger - Hess Bakken Investments Ii, Llc (Bakken) Oil and Gas Asset (North Dakota, United States)","type":"field","commodity":"oil/gas","status":"active","country":"United States","lat":48.272,"lon":-102.632},{"id":"L100000323136","name":"Alger - Oasis Petroleum North America Llc Oil and Gas Asset (North Dakota, United States)","type":"field","commodity":"oil/gas","status":"active","country":"United States","lat":48.319,"lon":-102.573},{"id":"L100000311952","name":"Al Gharaf Oil and Gas Field (Iraq)","type":"field","commodity":"oil/gas","status":"active","country":"Iraq","lat":31.73,"lon":45.566},{"id":"L100000300623","name":"Algyo Oil and Gas Field (Hungary)","type":"field","commodity":"oil/gas","status":"active","country":"Hungary","lat":46.333,"lon":20.25},{"id":"L100000312691","name":"Alibekmola Oil and Gas Field (Kazakhstan)","type":"field","commodity":"oil/gas","status":"active","country":"Kazakhstan","lat":48.373,"lon":58.014},{"id":"L100000313169","name":"Alida East Frob-Alida Oil Pool (Saskatchewan, Canada)","type":"field","commodity":"oil","status":"active","country":"Canada","lat":49.44,"lon":-101.837},{"id":"L100000313170","name":"Alida North Alida Oil Pool (Saskatchewan, Canada)","type":"field","commodity":"oil","status":"active","country":"Canada","lat":49.465,"lon":-101.968},{"id":"L100000313171","name":"Alida West Frob-Alida Oil Pool (Saskatchewan, Canada)","type":"field","commodity":"oil","status":"active","country":"Canada","lat":49.452,"lon":-101.918},{"id":"L100000312262","name":"Al Jalila Oil and Gas Field (United Arab Emirates)","type":"field","commodity":"oil/gas","status":"active","country":"United Arab Emirates","lat":25.333,"lon":54.667},{"id":"L100000319739","name":"Al Jubaissah Oil Field (Syria)","type":"field","commodity":"oil","status":"active","country":"Syria","lat":36.044,"lon":40.694},{"id":"L100000312708","name":"Al Jurf Oil Field (Libya)","type":"field","commodity":"oil","status":"active","country":"Libya","lat":33.512,"lon":12.022},{"id":"L100000323020","name":"Alkali Creek - Continental Resources, Inc. Oil and Gas Asset (North Dakota, United States)","type":"field","commodity":"oil/gas","status":"active","country":"United States","lat":48.139,"lon":-102.724},{"id":"L100000322960","name":"Alkali Creek - Hess Bakken Investments Ii, Llc Oil and Gas Asset (North Dakota, United States)","type":"field","commodity":"oil/gas","status":"active","country":"United States","lat":48.18,"lon":-102.758},{"id":"L100000323086","name":"Alkali Creek - Oasis Petroleum North America Llc Oil and Gas Asset (North Dakota, United States)","type":"field","commodity":"oil/gas","status":"active","country":"United States","lat":48.157,"lon":-102.721},{"id":"L100000322993","name":"Alkali Creek - Xto Energy Inc Oil and Gas Asset (North Dakota, United States)","type":"field","commodity":"oil/gas","status":"active","country":"United States","lat":48.195,"lon":-102.831},{"id":"L100000311648","name":"Al Karam Oil and Gas Field (Egypt)","type":"field","commodity":"oil/gas","status":"active","country":"Egypt","lat":29.772,"lon":28.179},{"id":"L100000312461","name":"Al-Karkara/A-Structure Oil and Gas Field (Qatar)","type":"field","commodity":"oil/gas","status":"active","country":"Qatar","lat":25.081,"lon":52.485},{"id":"L100000319036","name":"Al-Khaleej Gas Project 1 Gas Phase (Qatar)","type":"field","commodity":"gas","status":"active","country":"Qatar","lat":26.571,"lon":51.852},{"id":"L100000319035","name":"Al-Khaleej Gas Project 2 Gas Phase (Qatar)","type":"field","commodity":"gas","status":"active","country":"Qatar","lat":26.571,"lon":51.852},{"id":"L100000312459","name":"Al Khalij Oil and Gas Field (Qatar)","type":"field","commodity":"oil/gas","status":"active","country":"Qatar","lat":25.923,"lon":52.7},{"id":"L100000315032","name":"Allegheny (GC254) - ENI Oil and Gas Asset (Federal offshore, United States)","type":"field","commodity":"oil/gas","status":"active","country":"United States","lat":27.692,"lon":-90.261},{"id":"L100000321408","name":"Allen-Parker (Marmaton) - Mewbourne Oil Oil and Gas Asset (Texas, United States)","type":"field","commodity":"oil/gas","status":"active","country":"United States","lat":36.21,"lon":-100.829},{"id":"L100000302780","name":"Alligator Oil and Gas Field (Meta, Colombia)","type":"field","commodity":"oil/gas","status":"active","country":"Colombia","lat":4.339,"lon":-72.987},{"id":"L100000301870","name":"Alligin Oil and Gas Field (United Kingdom)","type":"field","commodity":"oil/gas","status":"active","country":"United Kingdom","lat":60.38,"lon":-4.218},{"id":"L100000302781","name":"Almagro Oil Field (Meta, Colombia)","type":"field","commodity":"oil","status":"active","country":"Colombia","lat":3.903,"lon":-72.658},{"id":"L100000319614","name":"al-Omar Oil Field (Syria)","type":"field","commodity":"oil","status":"active","country":"Syria","lat":35.075,"lon":40.601},{"id":"L100000321410","name":"Alpine High (Cons) - Apache Corporation Oil and Gas Asset (Texas, United States)","type":"field","commodity":"oil/gas","status":"active","country":"United States","lat":31.181,"lon":-103.864},{"id":"L100000312602","name":"Alrar Gas Field (Algeria)","type":"field","commodity":"gas","status":"active","country":"Algeria","lat":28.529,"lon":9.79},{"id":"L100000312465","name":"Al Rayyan Oil and Gas Field (Qatar)","type":"field","commodity":"oil/gas","status":"active","country":"Qatar","lat":26.659,"lon":51.573},{"id":"L100000312462","name":"Al Shaheen Oil and Gas Field (Qatar)","type":"field","commodity":"oil/gas","status":"active","country":"Qatar","lat":26.514,"lon":51.922},{"id":"L100000319615","name":"al-Tanak Oil Field (Syria)","type":"field","commodity":"oil","status":"active","country":"Syria","lat":34.928,"lon":40.831},{"id":"L100000319655","name":"Altares - Cnrl Gas Asset (British Columbia, Canada)","type":"field","commodity":"gas","status":"active","country":"Canada","lat":56.267,"lon":-122.01},{"id":"L100000311690","name":"Altares Gas Field (British Columbia, Canada)","type":"field","commodity":"gas","status":"active","country":"Canada","lat":56.267,"lon":-122.01},{"id":"L100000319619","name":"Altares - Pacific Canbriam Oil and Gas Asset (British Columbia, Canada)","type":"field","commodity":"oil/gas","status":"active","country":"Canada","lat":56.267,"lon":-122.01},{"id":"L100000300012","name":"Alto do Rodrigues Oil and Gas Field (Rio Grande do Norte, Brazil)","type":"field","commodity":"oil/gas","status":"active","country":"Brazil","lat":-5.316,"lon":-36.734},{"id":"L100000320418","name":"Alturitas Oil and Gas Field (Venezuela)","type":"field","commodity":"oil/gas","status":"active","country":"Venezuela","lat":9.794,"lon":-72.43},{"id":"L100000312817","name":"Alur Siwah Oil and Gas Field (Indonesia)","type":"field","commodity":"oil/gas","status":"active","country":"Indonesia","lat":4.938,"lon":97.61},{"id":"L100000320484","name":"Alvarez - Oveja (IV) Oil and Gas Field (Piura, Peru)","type":"field","commodity":"oil/gas","status":"active","country":"Peru","lat":-4.505,"lon":-81.121},{"id":"L100000320757","name":"Alve Nord Oil and Gas Field (Norway)","type":"field","commodity":"oil/gas","status":"development","country":"Norway","lat":66.021,"lon":7.848},{"id":"L100000304557","name":"Alve Oil and Gas Field (Norway)","type":"field","commodity":"oil/gas","status":"active","country":"Norway","lat":65.969,"lon":7.818},{"id":"L100000304510","name":"Alvheim Oil and Gas Field (Norway)","type":"field","commodity":"oil/gas","status":"active","country":"Norway","lat":59.579,"lon":1.99},{"id":"L100000301872","name":"Alwyn North Oil and Gas Field (United Kingdom)","type":"field","commodity":"oil/gas","status":"active","country":"United Kingdom","lat":60.809,"lon":1.742},{"id":"L100000311920","name":"Amal Oil Field (Egypt)","type":"field","commodity":"oil","status":"active","country":"Egypt","lat":28.067,"lon":33.517},{"id":"L100000312709","name":"Amal Oil Field (Libya)","type":"field","commodity":"oil","status":"active","country":"Libya","lat":29.484,"lon":21.103},{"id":"L100000311658","name":"Amal Redevelop (A and B) Oil and Gas Field (Egypt)","type":"field","commodity":"oil/gas","status":"active","country":"Egypt","lat":28.073,"lon":33.569},{"id":"L100000312509","name":"Amal West Oil Field (Oman)","type":"field","commodity":"oil","status":"active","country":"Oman","lat":20.329,"lon":56.07},{"id":"L100000312685","name":"Amangeldy Gas Field (Kazakhstan)","type":"field","commodity":"gas","status":"active","country":"Kazakhstan","lat":44.337,"lon":71.085},{"id":"L100000311954","name":"Amara Oil and Gas Field (Iraq)","type":"field","commodity":"oil/gas","status":"active","country":"Iraq","lat":31.747,"lon":47.061},{"id":"L100000302525","name":"Amatitlán Gas Field (Puebla; Veracruz, Mexico)","type":"field","commodity":"gas","status":"active","country":"Mexico","lat":20.863,"lon":-97.98},{"id":"L100000316364","name":"Amberjack (MC109) - Talos Petroleum Oil and Gas Asset (Federal offshore, United States)","type":"field","commodity":"oil/gas","status":"active","country":"United States","lat":28.859,"lon":-88.958},{"id":"L100000308200","name":"Amber Oil and Gas Field (Alberta, Canada)","type":"field","commodity":"oil/gas","status":"active","country":"Canada","lat":58.98,"lon":-119.177},{"id":"L100000300885","name":"Ameland-Oost Oil and Gas Field (Netherlands)","type":"field","commodity":"oil/gas","status":"active","country":"Netherlands","lat":53.47,"lon":5.914},{"id":"L100000300886","name":"Ameland-Westgat Oil and Gas Field (Netherlands)","type":"field","commodity":"oil/gas","status":"active","country":"Netherlands","lat":53.501,"lon":5.933},{"id":"L100000300668","name":"Amelia Gas Field (Italy)","type":"field","commodity":"gas","status":"active","country":"Italy","lat":44.409,"lon":12.67},{"id":"L100000310902","name":"Amherstia Gas Field (Trinidad and Tobago)","type":"field","commodity":"gas","status":"active","country":"Trinidad and Tobago","lat":9.965,"lon":-60.459},{"id":"L100000308202","name":"Amigo Oil and Gas Field (Alberta, Canada)","type":"field","commodity":"oil/gas","status":"active","country":"Canada","lat":59.404,"lon":-119.224},{"id":"L100000312511","name":"Amin Oil Field (Oman)","type":"field","commodity":"oil","status":"active","country":"Oman","lat":18.436,"lon":55.74},{"id":"L100000304820","name":"Amistad Gas Field (Ecuador)","type":"field","commodity":"gas","status":"active","country":"Ecuador","lat":-3.268,"lon":-80.463},{"id":"L100000302683","name":"Amoca Oil and Gas Field (Federal Offshore, Mexico)","type":"field","commodity":"oil/gas","status":"active","country":"Mexico","lat":18.335,"lon":-93.873},{"id":"L100000304705","name":"Amo Oil and Gas Field (Ecuador)","type":"field","commodity":"oil/gas","status":"active","country":"Ecuador","lat":-0.93,"lon":-76.223},{"id":"L100000319270","name":"Amplify Oklahoma Operating - Woods Oil and Gas Asset (Oklahoma, United States)","type":"field","commodity":"oil/gas","status":"active","country":"United States","lat":36.694,"lon":-98.626},{"id":"L100000301692","name":"Ana Gas Field (Romania)","type":"field","commodity":"gas","status":"development","country":"Romania","lat":44.072,"lon":29.97},{"id":"L100000300013","name":"Anambé Oil and Gas Field (Alagoas, Brazil)","type":"field","commodity":"oil/gas","status":"active","country":"Brazil","lat":-9.737,"lon":-36.073},{"id":"L100000318926","name":"Anchor (GC807) - Chevron Oil and Gas Asset (Federal offshore, United States)","type":"field","commodity":"oil/gas","status":"active","country":"United States","lat":27.145,"lon":-91.134},{"id":"L100000302784","name":"Andalucia Oil Field (Huila, Colombia)","type":"field","commodity":"oil","status":"active","country":"Colombia","lat":3.164,"lon":-75.121},{"id":"L100000302788","name":"Andina Norte Oil and Gas Field (Arauca, Colombia)","type":"field","commodity":"oil/gas","status":"active","country":"Colombia","lat":6.58,"lon":-71.742},{"id":"L100000302787","name":"Andina Oil and Gas Field (Arauca, Colombia)","type":"field","commodity":"oil/gas","status":"active","country":"Colombia","lat":6.601,"lon":-71.747},{"id":"L100000301875","name":"Andrew Oil and Gas Field (United Kingdom)","type":"field","commodity":"oil/gas","status":"active","country":"United Kingdom","lat":58.041,"lon":1.409},{"id":"L100000300669","name":"Angela-Angelina Gas Field (Italy)","type":"field","commodity":"gas","status":"active","country":"Italy","lat":44.391,"lon":12.343},{"id":"L100000310903","name":"Angelin Gas Field (Trinidad and Tobago)","type":"field","commodity":"gas","status":"active","country":"Trinidad and Tobago","lat":10.393,"lon":-60.589},{"id":"L100000309993","name":"Angel Oil and Gas Field (Western Australia, Australia)","type":"field","commodity":"oil/gas","status":"active","country":"Australia","lat":-19.504,"lon":116.598},{"id":"L100000302789","name":"Angie Oil Field (Santander, Colombia)","type":"field","commodity":"oil","status":"active","country":"Colombia","lat":6.383,"lon":-73.88},{"id":"L100000302526","name":"Angostura Gas Field (Veracruz, Mexico)","type":"field","commodity":"gas","status":"active","country":"Mexico","lat":18.643,"lon":-96.329},{"id":"L100000312022","name":"Angsi Oil and Gas Field (Malaysia)","type":"field","commodity":"oil/gas","status":"active","country":"Malaysia","lat":5.196,"lon":104.709},{"id":"L100000304958","name":"Ankleshwar Oil and Gas Field (Gujarat, India)","type":"field","commodity":"oil/gas","status":"active","country":"India","lat":21.595,"lon":72.93},{"id":"L100000300670","name":"Annamaria Gas Field (Italy)","type":"field","commodity":"gas","status":"active","country":"Italy","lat":44.286,"lon":13.446},{"id":"L100000312818","name":"Anoa Oil and Gas Field (Indonesia)","type":"field","commodity":"oil/gas","status":"active","country":"Indonesia","lat":4.742,"lon":105.727},{"id":"L100000318016","name":"Ansai Oil Field (Shaanxi, China)","type":"field","commodity":"oil","status":"active","country":"China","lat":36.891,"lon":109.148},{"id":"L100000308207","name":"Ansell Oil and Gas Field (Alberta, Canada)","type":"field","commodity":"oil/gas","status":"active","country":"Canada","lat":53.438,"lon":-116.798},{"id":"L100000308208","name":"Ante Creek North Oil and Gas Field (Alberta, Canada)","type":"field","commodity":"oil/gas","status":"active","country":"Canada","lat":54.76,"lon":-117.619},{"id":"L100000313174","name":"Antelope Cantuar Oil Pool (Saskatchewan, Canada)","type":"field","commodity":"oil","status":"active","country":"Canada","lat":50.161,"lon":-108.2},{"id":"L100000323109","name":"Antelope - Continental Resources, Inc. Oil and Gas Asset (North Dakota, United States)","type":"field","commodity":"oil/gas","status":"active","country":"United States","lat":48.007,"lon":-102.682},{"id":"L100000322963","name":"Antelope - Enerplus Resources Usa Corporation Oil and Gas Asset (North Dakota, United States)","type":"field","commodity":"oil/gas","status":"active","country":"United States","lat":47.937,"lon":-102.696},{"id":"L100000323002","name":"Antelope - Hess Bakken Investments Ii, Llc Oil and Gas Asset (North Dakota, United States)","type":"field","commodity":"oil/gas","status":"active","country":"United States","lat":48.026,"lon":-102.786},{"id":"L100000313175","name":"Antelope Lake Ct Roseray Oil Pool (Saskatchewan, Canada)","type":"field","commodity":"oil","status":"active","country":"Canada","lat":50.244,"lon":-108.364},{"id":"L100000313178","name":"Antelope Lake N Succ-Rosery Oil Pool (Saskatchewan, Canada)","type":"field","commodity":"oil","status":"active","country":"Canada","lat":50.25,"lon":-108.408},{"id":"L100000313180","name":"Antelope Lk S U Shaunavon Oil Pool (Saskatchewan, Canada)","type":"field","commodity":"oil","status":"active","country":"Canada","lat":50.21,"lon":-108.394},{"id":"L100000313181","name":"Antelope Lk U Shaunavon Oil Pool (Saskatchewan, Canada)","type":"field","commodity":"oil","status":"active","country":"Canada","lat":50.287,"lon":-108.434},{"id":"L100000322979","name":"Antelope - Marathon Oil Company Oil and Gas Asset (North Dakota, United States)","type":"field","commodity":"oil/gas","status":"active","country":"United States","lat":47.927,"lon":-102.691},{"id":"L100000323175","name":"Antelope - Petroshale (Us) Inc. Oil and Gas Asset (North Dakota, United States)","type":"field","commodity":"oil/gas","status":"active","country":"United States","lat":47.98,"lon":-102.737},{"id":"L100000323135","name":"Antelope - Wpx Energy Williston, Llc Oil and Gas Asset (North Dakota, United States)","type":"field","commodity":"oil/gas","status":"active","country":"United States","lat":47.862,"lon":-102.748},{"id":"L100000317211","name":"Anticlinal Grande (Chubut) Oil and Gas Field (Chubut, Argentina)","type":"field","commodity":"oil/gas","status":"active","country":"Argentina","lat":-45.804,"lon":-68.943},{"id":"L100000311597","name":"Anyala-Madu Oil and Gas Field (Nigeria)","type":"field","commodity":"oil/gas","status":"active","country":"Nigeria","lat":4.011,"lon":5.836},{"id":"L100000310836","name":"Anyue Gas Field (Sichuan, China)","type":"field","commodity":"gas","status":"active","country":"China","lat":30.275,"lon":105.664},{"id":"L100000321279","name":"Aonan Oil Field (Heilongjiang, China)","type":"field","commodity":"oil","status":"active","country":"China","lat":45.615,"lon":124.621},{"id":"L100000304600","name":"Apaika-Nenke Oil and Gas Field (Ecuador)","type":"field","commodity":"oil/gas","status":"active","country":"Ecuador","lat":-0.842,"lon":-75.918},{"id":"L100000300483","name":"Apeldorn Gas Field (Germany)","type":"field","commodity":"gas","status":"active","country":"Germany","lat":52.758,"lon":7.363},{"id":"L100001061418","name":"Aphrodite Gas Field (Trinidad and Tobago)","type":"field","commodity":"gas","status":"development","country":"Trinidad and Tobago","lat":10.287,"lon":-60.268},{"id":"L100000302790","name":"Apiay Oil and Gas Field (Meta, Colombia)","type":"field","commodity":"oil/gas","status":"active","country":"Colombia","lat":4.052,"lon":-73.438},{"id":"L100000301876","name":"Apollo Oil and Gas Field (United Kingdom)","type":"field","commodity":"oil/gas","status":"active","country":"United Kingdom","lat":53.893,"lon":0.565},{"id":"L100000315030","name":"Appaloosa (MC503) - ENI Oil and Gas Asset (Federal offshore, United States)","type":"field","commodity":"oil/gas","status":"active","country":"United States","lat":28.51,"lon":-88.976},{"id":"L100000315606","name":"Appaloosa (MC503) - LLOG Offshore Oil and Gas Asset (Federal offshore, United States)","type":"field","commodity":"oil/gas","status":"active","country":"United States","lat":28.466,"lon":-89.025},{"id":"L100000316205","name":"Appomattox (MC392) - Shell Oil and Gas Asset (Federal offshore, United States)","type":"field","commodity":"oil/gas","status":"active","country":"United States","lat":28.608,"lon":-88.015},{"id":"L100000300021","name":"Apraiús Oil and Gas Field (Bahia, Brazil)","type":"field","commodity":"oil/gas","status":"active","country":"Brazil","lat":-12.275,"lon":-38.166},{"id":"L100000312266","name":"Aqam Oil and Gas Field (United Arab Emirates)","type":"field","commodity":"oil/gas","status":"active","country":"United Arab Emirates","lat":25.003,"lon":55.461},{"id":"L100000300671","name":"Aquila Oil and Gas Field (Italy)","type":"field","commodity":"oil/gas","status":"active","country":"Italy","lat":40.909,"lon":18.481},{"id":"L100000300022","name":"Arabaiana Oil and Gas Field (Rio Grande do Norte, Brazil)","type":"field","commodity":"oil/gas","status":"active","country":"Brazil","lat":-4.712,"lon":-36.733},{"id":"L100000300029","name":"Araças Leste Oil and Gas Field (Bahia, Brazil)","type":"field","commodity":"oil/gas","status":"active","country":"Brazil","lat":-12.136,"lon":-38.109},{"id":"L100000300030","name":"Araçás Oil and Gas Field (Bahia, Brazil)","type":"field","commodity":"oil/gas","status":"active","country":"Brazil","lat":-12.137,"lon":-38.171},{"id":"L100000302527","name":"Aragón Oil and Gas Field (Veracruz, Mexico)","type":"field","commodity":"oil/gas","status":"active","country":"Mexico","lat":20.974,"lon":-97.924},{"id":"L100000320441","name":"Araibel Oil and Gas Field (Venezuela)","type":"field","commodity":"oil/gas","status":"active","country":"Venezuela","lat":9.226,"lon":-64.175},{"id":"L100000320007","name":"Arandala (Pueblo Nuevo) Gas Field (Cordoba, Colombia)","type":"field","commodity":"gas","status":"active","country":"Colombia","lat":8.572,"lon":-75.363},{"id":"L100000300024","name":"Arara Azul Oil and Gas Field (Amazonas, Brazil)","type":"field","commodity":"oil/gas","status":"active","country":"Brazil","lat":-4.632,"lon":-65.391},{"id":"L100000300025","name":"Araracanga Oil and Gas Field (Amazonas, Brazil)","type":"field","commodity":"oil/gas","status":"active","country":"Brazil","lat":-4.756,"lon":-65.662},{"id":"L100000300027","name":"Aratum Oil and Gas Field (Rio Grande do Norte, Brazil)","type":"field","commodity":"oil/gas","status":"active","country":"Brazil","lat":-5.044,"lon":-36.565},{"id":"L100000302793","name":"Arauco Oil Field (Casanare, Colombia)","type":"field","commodity":"oil","status":"active","country":"Colombia","lat":5.245,"lon":-71.382},{"id":"L100000301877","name":"Arbroath Oil and Gas Field (United Kingdom)","type":"field","commodity":"oil/gas","status":"active","country":"United Kingdom","lat":57.378,"lon":1.366},{"id":"L100000302534","name":"Arcabuz Oil and Gas Field (Nuevo León; Tamaulipas, Mexico)","type":"field","commodity":"oil/gas","status":"active","country":"Mexico","lat":26.121,"lon":-99.082},{"id":"L100000310598","name":"Arcadia Gas Field (Queensland, Australia)","type":"field","commodity":"gas","status":"active","country":"Australia","lat":-24.615,"lon":149.086},{"id":"L100000312125","name":"Archinskoye Oil and Gas Field (Tomsk region, Russia)","type":"field","commodity":"oil/gas","status":"active","country":"Russia","lat":57.49,"lon":78.5},{"id":"L100000313183","name":"Arcola Frobisher-Alida Oil Pool (Saskatchewan, Canada)","type":"field","commodity":"oil","status":"active","country":"Canada","lat":49.655,"lon":-102.387},{"id":"L100000302540","name":"Arcos Oil and Gas Field (Tamaulipas, Mexico)","type":"field","commodity":"oil/gas","status":"active","country":"Mexico","lat":26.491,"lon":-99.177},{"id":"L100000302794","name":"Ardilla Oil and Gas Field (Meta, Colombia)","type":"field","commodity":"oil/gas","status":"active","country":"Colombia","lat":4.322,"lon":-72.982},{"id":"L100000302795","name":"Area Teca-Cocorna (Puerto Nare) Oil and Gas Field (Antioquia, Colombia)","type":"field","commodity":"oil/gas","status":"active","country":"Colombia","lat":6.057,"lon":-74.593},{"id":"L100000319548","name":"Arenal Gas Field (Chile)","type":"field","commodity":"gas","status":"active","country":"Chile","lat":-52.622,"lon":-69.42},{"id":"L100000302278","name":"Arenque Oil and Gas Field (Federal Offshore, Mexico)","type":"field","commodity":"oil/gas","status":"active","country":"Mexico","lat":22.244,"lon":-97.525},{"id":"L100000300031","name":"Argonauta Oil and Gas Field (Espírito Santo, Brazil)","type":"field","commodity":"oil/gas","status":"active","country":"Brazil","lat":-21.205,"lon":-39.853},{"id":"L100000300672","name":"Argo Oil and Gas Field (Italy)","type":"field","commodity":"oil/gas","status":"active","country":"Italy","lat":36.918,"lon":13.776},{"id":"L100000314395","name":"Ariel (MC429) - BP Oil and Gas Asset (Federal offshore, United States)","type":"field","commodity":"oil/gas","status":"active","country":"United States","lat":28.562,"lon":-88.311},{"id":"L100000317212","name":"Aries-Aries Norte (Estado Nacional) Oil and Gas Field (Estado Nacional, Argentina)","type":"field","commodity":"oil/gas","status":"active","country":"Argentina","lat":-52.651,"lon":-68.081},{"id":"L100000310920","name":"Aripo Gas Field (Trinidad and Tobago)","type":"field","commodity":"gas","status":"active","country":"Trinidad and Tobago","lat":10.706,"lon":-60.591},{"id":"L100000302798","name":"Arjona Gas Field (Cesar, Colombia)","type":"field","commodity":"gas","status":"active","country":"Colombia","lat":9.548,"lon":-73.945},{"id":"L100000312819","name":"Arjuna Oil and Gas Field (Indonesia)","type":"field","commodity":"oil/gas","status":"active","country":"Indonesia","lat":-5.9,"lon":107.7},{"id":"L100000312454","name":"Arkutun-Dagi Oil and Gas Field (Russia)","type":"field","commodity":"oil/gas","status":"active","country":"Russia","lat":52.583,"lon":143.717},{"id":"L100000312374","name":"Arlanskoye (Bashneft) Oil Asset (Republic of Bashkortostan, Russia)","type":"field","commodity":"oil","status":"active","country":"Russia","lat":55.834,"lon":54.415},{"id":"L100000319179","name":"Arlanskoye (Vyatka area) Oil Asset (Udmurt Republic, Russia)","type":"field","commodity":"oil","status":"active","country":"Russia","lat":56.109,"lon":54.035},{"id":"L100000304602","name":"Armadillo Oil and Gas Field (Ecuador)","type":"field","commodity":"oil/gas","status":"active","country":"Ecuador","lat":-0.938,"lon":-76.841},{"id":"L100000321414","name":"Armer (6350) - Blackbeard Operating Oil and Gas Asset (Texas, United States)","type":"field","commodity":"oil/gas","status":"active","country":"United States","lat":31.543,"lon":-102.7},{"id":"L100000318224","name":"Arran Gas Field (United Kingdom)","type":"field","commodity":"gas","status":"active","country":"United Kingdom","lat":57.476,"lon":2.086},{"id":"L100000302799","name":"Arrayán Oil and Gas Field (Huila, Colombia)","type":"field","commodity":"oil/gas","status":"active","country":"Colombia","lat":3.176,"lon":-75.297},{"id":"L100000302528","name":"Arroyo Prieto Oil and Gas Field (Tabasco, Mexico)","type":"field","commodity":"oil/gas","status":"active","country":"Mexico","lat":17.921,"lon":-93.76},{"id":"L100000302529","name":"Artesa Gas Field (Chiapas, Mexico)","type":"field","commodity":"gas","status":"active","country":"Mexico","lat":17.726,"lon":-93.155},{"id":"L100000305121","name":"Arthit Oil and Gas Field (Thailand)","type":"field","commodity":"oil/gas","status":"active","country":"Thailand","lat":8.22,"lon":102.485},{"id":"L100000301879","name":"Arundel Oil and Gas Field (United Kingdom)","type":"field","commodity":"oil/gas","status":"active","country":"United Kingdom","lat":58.193,"lon":1.427},{"id":"L100000312703","name":"Arystanovskoye Oil Field (Kazakhstan)","type":"field","commodity":"oil","status":"active","country":"Kazakhstan","lat":44.633,"lon":54.365},{"id":"L100000312268","name":"Asab Oil Field (United Arab Emirates)","type":"field","commodity":"oil","status":"active","country":"United Arab Emirates","lat":23.32,"lon":54.143},{"id":"L100000310990","name":"Asabo Oil and Gas Field (Nigeria)","type":"field","commodity":"oil/gas","status":"active","country":"Nigeria","lat":4.096,"lon":7.772},{"id":"L100000312906","name":"Asap/Merah/Kido (AMK) Oil and Gas Field (Indonesia)","type":"field","commodity":"oil/gas","status":"development","country":"Indonesia","lat":-2.486,"lon":133.228},{"id":"L100000310993","name":"Asasa Oil Field (Nigeria)","type":"field","commodity":"oil","status":"active","country":"Nigeria","lat":4.073,"lon":7.981},{"id":"L100001055828","name":"Aschisay Oil and Gas Field (Kazakhstan)","type":"field","commodity":"oil/gas","status":"active","country":"Kazakhstan","lat":45.156,"lon":65.471},{"id":"L100000304502","name":"Åsgard Oil and Gas Field (Norway)","type":"field","commodity":"oil/gas","status":"active","country":"Norway","lat":65.106,"lon":6.77},{"id":"L100000310994","name":"Ashaka Oil and Gas Field (Nigeria)","type":"field","commodity":"oil/gas","status":"active","country":"Nigeria","lat":5.698,"lon":6.487},{"id":"L100000321169","name":"Ashalchinskoye Oil Field (Russia)","type":"field","commodity":"oil","status":"active","country":"Russia","lat":54.817,"lon":51.517},{"id":"L100000317749","name":"Ashland - Aethon Energy Operating Llc Gas Asset (Louisiana, United States)","type":"field","commodity":"gas","status":"active","country":"United States","lat":32.122,"lon":-93.099},{"id":"L100000313185","name":"Ashley Lake Tilston Oil Pool (Saskatchewan, Canada)","type":"field","commodity":"oil","status":"active","country":"Canada","lat":49.786,"lon":-102.411},{"id":"L100000312710","name":"As-Sarah Oil Field (Libya)","type":"field","commodity":"oil","status":"active","country":"Libya","lat":29.336,"lon":21.625},{"id":"L100000312711","name":"Assoumoud Oil and Gas Field (Libya)","type":"field","commodity":"oil/gas","status":"active","country":"Libya","lat":29.506,"lon":20.02},{"id":"L100000308220","name":"Astotin Oil and Gas Field (Alberta, Canada)","type":"field","commodity":"oil/gas","status":"active","country":"Canada","lat":53.731,"lon":-112.612},{"id":"L100000318893","name":"Astrakhanskoye (Left Bank) Gas and Condensate Asset (Astrakhan region, Russia)","type":"field","commodity":"condensate","status":"active","country":"Russia","lat":46.828,"lon":48.14},{"id":"L100000320323","name":"Atapu Eco Oil and Gas Field (Rio de Janeiro, Brazil)","type":"field","commodity":"oil/gas","status":"active","country":"Brazil","lat":-24.952,"lon":-42.469},{"id":"L100000300036","name":"Atapu Oil and Gas Field (Rio de Janeiro, Brazil)","type":"field","commodity":"oil/gas","status":"active","country":"Brazil","lat":-24.952,"lon":-42.469},{"id":"L100000314577","name":"Atchafalaya Bay - Castex Oil and Gas Asset (Louisiana, United States)","type":"field","commodity":"oil/gas","status":"active","country":"United States","lat":29.42,"lon":-91.472},{"id":"L100000316422","name":"Atchafalaya Bay - Texas Petroleum Investment Oil and Gas Asset (Louisiana, United States)","type":"field","commodity":"oil/gas","status":"active","country":"United States","lat":29.42,"lon":-91.472},{"id":"L100000309302","name":"Athabasca Area - Scheme 10097GGG Oil Sands Oil Asset (Alberta, Canada)","type":"field","commodity":"oil","status":"active","country":"Canada","lat":55.529,"lon":-110.925},{"id":"L100000309619","name":"Athabasca Area - Scheme 10419GG Oil Sands Oil Asset (Alberta, Canada)","type":"field","commodity":"oil","status":"active","country":"Canada","lat":57.222,"lon":-111.032},{"id":"L100000309314","name":"Athabasca Area - Scheme 10423Y Oil Sands Oil Asset (Alberta, Canada)","type":"field","commodity":"oil","status":"active","country":"Canada","lat":55.998,"lon":-113.447},{"id":"L100000309322","name":"Athabasca Area - Scheme 10587S Oil Sands Oil Asset (Alberta, Canada)","type":"field","commodity":"oil","status":"active","country":"Canada","lat":56.123,"lon":-111.75},{"id":"L100000309330","name":"Athabasca Area - Scheme 10773EEE Oil Sands Oil Asset (Alberta, Canada)","type":"field","commodity":"oil","status":"active","country":"Canada","lat":55.678,"lon":-110.737},{"id":"L100000309627","name":"Athabasca Area - Scheme 10781P Oil Sands Oil Asset (Alberta, Canada)","type":"field","commodity":"oil","status":"active","country":"Canada","lat":57.231,"lon":-111.213},{"id":"L100000309332","name":"Athabasca Area - Scheme 10787R Oil Sands Oil Asset (Alberta, Canada)","type":"field","commodity":"oil","status":"active","country":"Canada","lat":55.968,"lon":-113.238},{"id":"L100000309628","name":"Athabasca Area - Scheme 10829K Oil Sands Oil Asset (Alberta, Canada)","type":"field","commodity":"oil","status":"active","country":"Canada","lat":57.359,"lon":-111.11},{"id":"L100000309337","name":"Athabasca Area - Scheme 10935AA Oil Sands Oil Asset (Alberta, Canada)","type":"field","commodity":"oil","status":"active","country":"Canada","lat":55.797,"lon":-111.473},{"id":"L100000309365","name":"Athabasca Area - Scheme 11387G Oil Sands Oil Asset (Alberta, Canada)","type":"field","commodity":"oil","status":"active","country":"Canada","lat":55.576,"lon":-110.977},{"id":"L100000309620","name":"Athabasca Area - Scheme 11475II Oil Sands Oil Asset (Alberta, Canada)","type":"field","commodity":"oil","status":"active","country":"Canada","lat":55.429,"lon":-111.165},{"id":"L100000309409","name":"Athabasca Area - Scheme 11715R Oil Sands Oil Asset (Alberta, Canada)","type":"field","commodity":"oil","status":"active","country":"Canada","lat":56.829,"lon":-112.183},{"id":"L100000309423","name":"Athabasca Area - Scheme 11888F Oil Sands Oil Asset (Alberta, Canada)","type":"field","commodity":"oil","status":"active","country":"Canada","lat":56.492,"lon":-111.415},{"id":"L100000309425","name":"Athabasca Area - Scheme 11910H Oil Sands Oil Asset (Alberta, Canada)","type":"field","commodity":"oil","status":"active","country":"Canada","lat":56.284,"lon":-111.669},{"id":"L100000309440","name":"Athabasca Area - Scheme 12218R Oil Sands Oil Asset (Alberta, Canada)","type":"field","commodity":"oil","status":"active","country":"Canada","lat":55.464,"lon":-113.849},{"id":"L100000309456","name":"Athabasca Area - Scheme 12471O Oil Sands Oil Asset (Alberta, Canada)","type":"field","commodity":"oil","status":"active","country":"Canada","lat":55.345,"lon":-113.789},{"id":"L100000309596","name":"Athabasca Area - Scheme 12572D Oil Sands Oil Asset (Alberta, Canada)","type":"field","commodity":"oil","status":"active","country":"Canada","lat":55.466,"lon":-114.013},{"id":"L100000309626","name":"Athabasca Area - Scheme 8512M Oil Sands Oil Asset (Alberta, Canada)","type":"field","commodity":"oil","status":"active","country":"Canada","lat":57.238,"lon":-111.522},{"id":"L100000309630","name":"Athabasca Area - Scheme 8535N Oil Sands Oil Asset (Alberta, Canada)","type":"field","commodity":"oil","status":"active","country":"Canada","lat":57.011,"lon":-111.346},{"id":"L100000309631","name":"Athabasca Area - Scheme 8573P Oil Sands Oil Asset (Alberta, Canada)","type":"field","commodity":"oil","status":"active","country":"Canada","lat":57.056,"lon":-111.711},{"id":"L100000309622","name":"Athabasca Area - Scheme 8591SSS Oil Sands Oil Asset (Alberta, Canada)","type":"field","commodity":"oil","status":"active","country":"Canada","lat":55.578,"lon":-110.759},{"id":"L100000309623","name":"Athabasca Area - Scheme 8623GGGG Oil Sands Oil Asset (Alberta, Canada)","type":"field","commodity":"oil","status":"active","country":"Canada","lat":55.07,"lon":-110.645},{"id":"L100000309532","name":"Athabasca Area - Scheme 8668FFF Oil Sands Oil Asset (Alberta, Canada)","type":"field","commodity":"oil","status":"active","country":"Canada","lat":57.044,"lon":-111.901},{"id":"L100000309535","name":"Athabasca Area - Scheme 8788P Oil Sands Oil Asset (Alberta, Canada)","type":"field","commodity":"oil","status":"active","country":"Canada","lat":56.323,"lon":-111.659},{"id":"L100000309537","name":"Athabasca Area - Scheme 8870KKKK Oil Sands Oil Asset (Alberta, Canada)","type":"field","commodity":"oil","status":"active","country":"Canada","lat":57.233,"lon":-110.873},{"id":"L100000309624","name":"Athabasca Area - Scheme 9241H Oil Sands Oil Asset (Alberta, Canada)","type":"field","commodity":"oil","status":"active","country":"Canada","lat":57.414,"lon":-111.54},{"id":"L100000309616","name":"Athabasca Area - Scheme 9404X Oil Sands Oil Asset (Alberta, Canada)","type":"field","commodity":"oil","status":"active","country":"Canada","lat":56.146,"lon":-113.148},{"id":"L100000309558","name":"Athabasca Area - Scheme 9426VV Oil Sands Oil Asset (Alberta, Canada)","type":"field","commodity":"oil","status":"active","country":"Canada","lat":56.129,"lon":-110.918},{"id":"L100000309563","name":"Athabasca Area - Scheme 9485FFF Oil Sands Oil Asset (Alberta, Canada)","type":"field","commodity":"oil","status":"active","country":"Canada","lat":56.362,"lon":-110.961},{"id":"L100000309570","name":"Athabasca Area - Scheme 9673Q Oil Sands Oil Asset (Alberta, Canada)","type":"field","commodity":"oil","status":"active","country":"Canada","lat":56.132,"lon":-113.03},{"id":"L100000309625","name":"Athabasca Area - Scheme 9752I Oil Sands Oil Asset (Alberta, Canada)","type":"field","commodity":"oil","status":"active","country":"Canada","lat":57.35,"lon":-111.813},{"id":"L100000309629","name":"Athabasca Area - Scheme 9756J Oil Sands Oil Asset (Alberta, Canada)","type":"field","commodity":"oil","status":"active","country":"Canada","lat":57.341,"lon":-111.302},{"id":"L100000308222","name":"Athabasca East Gas Field (Alberta, Canada)","type":"field","commodity":"gas","status":"active","country":"Canada","lat":54.73,"lon":-113.162},{"id":"L100000318263","name":"Athena Gas Field (Israel)","type":"field","commodity":"gas","status":"development","country":"Israel","lat":33.192,"lon":34.193},{"id":"L100000300037","name":"Atlanta Oil and Gas Field (Rio de Janeiro, Brazil)","type":"field","commodity":"oil/gas","status":"active","country":"Brazil","lat":-24.113,"lon":-41.893},{"id":"L100000314392","name":"Atlantis (GC743) - BP Oil and Gas Asset (Federal offshore, United States)","type":"field","commodity":"oil/gas","status":"active","country":"United States","lat":27.243,"lon":-90.013},{"id":"L100000310602","name":"Atlas Gas Field (Queensland, Australia)","type":"field","commodity":"gas","status":"active","country":"Australia","lat":-26.196,"lon":149.791},{"id":"L100000308225","name":"Atlee-Buffalo Oil and Gas Field (Alberta, Canada)","type":"field","commodity":"oil/gas","status":"active","country":"Canada","lat":50.898,"lon":-110.787},{"id":"L100000308226","name":"Atmore Gas Field (Alberta, Canada)","type":"field","commodity":"gas","status":"active","country":"Canada","lat":54.808,"lon":-112.462},{"id":"L100000311579","name":"Atoll Oil and Gas Field (Egypt)","type":"field","commodity":"oil/gas","status":"active","country":"Egypt","lat":32.226,"lon":31.886},{"id":"L100000311955","name":"Atrush Oil and Gas Field (Iraq)","type":"field","commodity":"oil/gas","status":"active","country":"Iraq","lat":36.937,"lon":43.328},{"id":"L100000312712","name":"Attahadi Oil and Gas Field (Libya)","type":"field","commodity":"oil/gas","status":"active","country":"Libya","lat":29.575,"lon":19.622},{"id":"L100000317067","name":"Atum Oil and Gas Field (Mozambique)","type":"field","commodity":"oil/gas","status":"development","country":"Mozambique","lat":-10.618,"lon":40.879},{"id":"L100000305071","name":"Atzam Oil Field (Guatemala)","type":"field","commodity":"oil","status":"active","country":"Guatemala","lat":15.974,"lon":-90.616},{"id":"L100000304604","name":"Auca Oil and Gas Field (Ecuador)","type":"field","commodity":"oil/gas","status":"active","country":"Ecuador","lat":-0.608,"lon":-76.899},{"id":"L100000304606","name":"Auca Sur 1-2 Oil and Gas Field (Ecuador)","type":"field","commodity":"oil/gas","status":"active","country":"Ecuador","lat":-0.793,"lon":-76.887},{"id":"L100000316209","name":"Auger (GB426) - Shell Oil and Gas Asset (Federal offshore, United States)","type":"field","commodity":"oil/gas","status":"active","country":"United States","lat":27.55,"lon":-92.432},{"id":"L100000312713","name":"Augila-Nafoora Oil Field (Libya)","type":"field","commodity":"oil","status":"active","country":"Libya","lat":29.254,"lon":21.523},{"id":"L100000301880","name":"Auk Oil and Gas Field (United Kingdom)","type":"field","commodity":"oil/gas","status":"active","country":"United Kingdom","lat":56.399,"lon":2.088},{"id":"L100000302802","name":"Aullador Oil and Gas Field (Santander, Colombia)","type":"field","commodity":"oil/gas","status":"active","country":"Colombia","lat":7.596,"lon":-73.631},{"id":"L100000317124","name":"Aurora Oil Field (Alaska, United States)","type":"field","commodity":"oil","status":"active","country":"United States","lat":70.222,"lon":-148.453},{"id":"L100000301881","name":"Aviat Oil and Gas Field (United Kingdom)","type":"field","commodity":"oil/gas","status":"active","country":"United Kingdom","lat":57.703,"lon":1.276},{"id":"L100000302804","name":"Avispa Oil and Gas Field (Meta, Colombia)","type":"field","commodity":"oil/gas","status":"active","country":"Colombia","lat":4.322,"lon":-72.982},{"id":"L100000323083","name":"Avoca - Grayson Mill Operating, Llc Oil and Gas Asset (North Dakota, United States)","type":"field","commodity":"oil/gas","status":"active","country":"United States","lat":48.18,"lon":-103.499},{"id":"L100000313187","name":"Avon Hill Viking Sand Oil Pool (Saskatchewan, Canada)","type":"field","commodity":"oil","status":"active","country":"Canada","lat":51.533,"lon":-109},{"id":"L100000310997","name":"Awawa Oil and Gas Field (Nigeria)","type":"field","commodity":"oil/gas","status":"active","country":"Nigeria","lat":3.918,"lon":7.453},{"id":"L100000302258","name":"Ayatsil Oil and Gas Field (Federal Offshore, Mexico)","type":"field","commodity":"oil/gas","status":"active","country":"Mexico","lat":19.625,"lon":-92.354},{"id":"L100000302407","name":"Ayocote Oil and Gas Field (Tabasco, Mexico)","type":"field","commodity":"oil/gas","status":"active","country":"Mexico","lat":17.897,"lon":-93.751},{"id":"L100000312692","name":"Ayrankol Oil and Gas Field (Kazakhstan)","type":"field","commodity":"oil/gas","status":"active","country":"Kazakhstan","lat":46.983,"lon":54.017},{"id":"L100000321088","name":"Ayzavat Gas and Condensate Field (Uzbekistan)","type":"field","commodity":"condensate","status":"active","country":"Uzbekistan","lat":38.826,"lon":66.351},{"id":"L100000312170","name":"Azadegan North Oil Field (Iran)","type":"field","commodity":"oil","status":"active","country":"Iran","lat":31.161,"lon":47.795},{"id":"L100000312172","name":"Azadegan South Oil Field (Iran)","type":"field","commodity":"oil","status":"active","country":"Iran","lat":31.161,"lon":47.795},{"id":"L100000302805","name":"Azafrán Oil Field (Casanare, Colombia)","type":"field","commodity":"oil","status":"active","country":"Colombia","lat":5.392,"lon":-71.331},{"id":"L100000312193","name":"Azar Oil Field (Iran)","type":"field","commodity":"oil","status":"active","country":"Iran","lat":33.03,"lon":46.608},{"id":"L100000317038","name":"Azeri Oil and Gas Field (Azerbaijan)","type":"field","commodity":"oil/gas","status":"active","country":"Azerbaijan","lat":40.22,"lon":51.098},{"id":"L100000319750","name":"Azraq Oil Field (Syria)","type":"field","commodity":"oil","status":"active","country":"Syria","lat":35.059,"lon":40.856},{"id":"L100000300039","name":"Azulão Gas Field (Amazonas, Brazil)","type":"field","commodity":"gas","status":"active","country":"Brazil","lat":-2.733,"lon":-58.178},{"id":"L100000321196","name":"Azulao Oeste Gas Field (Amazonas, Brazil)","type":"field","commodity":"gas","status":"active","country":"Brazil","lat":-2.788,"lon":-58.257},{"id":"L100000311945","name":"B11 Gas Field (Malaysia)","type":"field","commodity":"gas","status":"active","country":"Malaysia","lat":4.721,"lon":113.108},{"id":"L100000300894","name":"B13-FA Gas Field (Netherlands)","type":"field","commodity":"gas","status":"active","country":"Netherlands","lat":55.3,"lon":4.092},{"id":"L100000301437","name":"B 3 Oil and Gas Field (Poland)","type":"field","commodity":"oil/gas","status":"active","country":"Poland","lat":55.36,"lon":18.03},{"id":"L100000301440","name":"B 8 Oil and Gas Field (Poland)","type":"field","commodity":"oil/gas","status":"active","country":"Poland","lat":55.39,"lon":18.692},{"id":"L100000311968","name":"Baba Oil and Gas Field (Iraq)","type":"field","commodity":"oil/gas","status":"active","country":"Iraq","lat":35.457,"lon":44.38},{"id":"L100000301883","name":"Babbage Oil and Gas Field (United Kingdom)","type":"field","commodity":"oil/gas","status":"active","country":"United Kingdom","lat":53.946,"lon":1.249},{"id":"L100000312269","name":"Bab Oil and Gas Field (United Arab Emirates)","type":"field","commodity":"oil/gas","status":"active","country":"United Arab Emirates","lat":23.871,"lon":53.634},{"id":"L100000302344","name":"Bacab Oil and Gas Field (Federal Offshore, Mexico)","type":"field","commodity":"oil/gas","status":"active","country":"Mexico","lat":19.566,"lon":-92.119},{"id":"L100000302408","name":"Bacal Gas Field (Veracruz, Mexico)","type":"field","commodity":"gas","status":"active","country":"Mexico","lat":17.805,"lon":-93.939},{"id":"L100000300040","name":"Bacalhau Oil and Gas Field (Rio Grande do Norte, Brazil)","type":"field","commodity":"oil/gas","status":"active","country":"Brazil","lat":-25.472,"lon":-44.003},{"id":"L100000302808","name":"Bacano Oil Field (Casanare, Colombia)","type":"field","commodity":"oil","status":"active","country":"Colombia","lat":4.352,"lon":-72.748},{"id":"L100000301884","name":"Bacchus Oil and Gas Field (United Kingdom)","type":"field","commodity":"oil/gas","status":"active","country":"United Kingdom","lat":57.763,"lon":1.075},{"id":"L100000305052","name":"Bachaquero Oil Field (Venezuela)","type":"field","commodity":"oil","status":"active","country":"Venezuela","lat":9.712,"lon":-70.99},{"id":"L100000317963","name":"Bach Ho Oil Field (Vietnam)","type":"field","commodity":"oil","status":"active","country":"Vietnam","lat":9.73,"lon":107.972},{"id":"L100000312821","name":"Badak Oil and Gas Field (Indonesia)","type":"field","commodity":"oil/gas","status":"active","country":"Indonesia","lat":-0.341,"lon":117.424},{"id":"L100000312957","name":"Badami Oil and Gas Field (Alaska, United States)","type":"field","commodity":"oil/gas","status":"active","country":"United States","lat":70.153,"lon":-147.037},{"id":"L100000300042","name":"Badejo Oil and Gas Field (Rio de Janeiro, Brazil)","type":"field","commodity":"oil/gas","status":"active","country":"Brazil","lat":-22.693,"lon":-40.868},{"id":"L100000312887","name":"Badik Oil and Gas Field (Indonesia)","type":"field","commodity":"oil/gas","status":"development","country":"Indonesia","lat":3.716,"lon":118.2},{"id":"L100000317518","name":"Badila Oil and Gas Field (Chad)","type":"field","commodity":"oil/gas","status":"active","country":"Chad","lat":8.408,"lon":16.044},{"id":"L100000311956","name":"Badra Oil Field (Iraq)","type":"field","commodity":"oil","status":"active","country":"Iraq","lat":33.037,"lon":46.056},{"id":"L100000311637","name":"Badri Oil and Gas Field (Egypt)","type":"field","commodity":"oil/gas","status":"active","country":"Egypt","lat":28.285,"lon":33.37},{"id":"L100000302701","name":"Bagre Oil and Gas Field (Federal Offshore, Mexico)","type":"field","commodity":"oil/gas","status":"active","country":"Mexico","lat":20.973,"lon":-97.047},{"id":"L100000312926","name":"Bahar Oil and Gas Field (Azerbaijan)","type":"field","commodity":"oil/gas","status":"active","country":"Azerbaijan","lat":40.142,"lon":50.043},{"id":"L100000311649","name":"Bahga Oil and Gas Field (Egypt)","type":"field","commodity":"oil/gas","status":"active","country":"Egypt","lat":29.271,"lon":28.371},{"id":"L100000320955","name":"Bahi Redevelopment Oil Field (Libya)","type":"field","commodity":"oil","status":"active","country":"Libya","lat":29.789,"lon":17.554},{"id":"L100000312512","name":"Bahja (North and South) Oil and Gas Field (Oman)","type":"field","commodity":"oil/gas","status":"active","country":"Oman","lat":19.924,"lon":56.113},{"id":"L100000312418","name":"Bahrah Oil Field (Kuwait)","type":"field","commodity":"oil","status":"active","country":"Kuwait","lat":29.638,"lon":47.923},{"id":"L100000300484","name":"Bahrenborstel/Burgmoor/Uchte (Zechstein) Gas Field (Germany)","type":"field","commodity":"gas","status":"active","country":"Germany","lat":52.537,"lon":8.806},{"id":"L100000300485","name":"Bahrenborstel/Uchte (Buntsandstein) Gas Field (Germany)","type":"field","commodity":"gas","status":"active","country":"Germany","lat":52.511,"lon":8.83},{"id":"L100000317448","name":"Bahr Es Salam (Structures A&E) Oil and Gas Field (Libya)","type":"field","commodity":"oil/gas","status":"development","country":"Libya","lat":33.77,"lon":12.658},{"id":"L100000312715","name":"Bahr Es Salam (Structures B&C) Oil and Gas Field (Libya)","type":"field","commodity":"oil/gas","status":"active","country":"Libya","lat":33.757,"lon":12.678},{"id":"L100000311957","name":"Bai Hassan Oil Field (Iraq)","type":"field","commodity":"oil","status":"active","country":"Iraq","lat":35.81,"lon":43.777},{"id":"L100000320991","name":"Baikalovskoye Oil and Gas Field (Russia)","type":"field","commodity":"oil/gas","status":"development","country":"Russia","lat":70.666,"lon":83.682},{"id":"L100000322948","name":"Bailey - Marathon Oil Company Oil and Gas Asset (North Dakota, United States)","type":"field","commodity":"oil/gas","status":"active","country":"United States","lat":47.443,"lon":-102.605},{"id":"L100000301885","name":"Baird Oil and Gas Field (United Kingdom)","type":"field","commodity":"oil/gas","status":"active","country":"United Kingdom","lat":53.272,"lon":2.527},{"id":"L100000300044","name":"Baixa do Algodão Oil and Gas Field (Rio Grande do Norte, Brazil)","type":"field","commodity":"oil/gas","status":"active","country":"Brazil","lat":-5.371,"lon":-37.632},{"id":"L100000317213","name":"Bajada de Añelo (Neuquén) - Shell Oil and Gas Asset (Neuquén, Argentina)","type":"field","commodity":"oil/gas","status":"active","country":"Argentina","lat":-38.347,"lon":-68.787},{"id":"L100000323480","name":"Bajada del Palo Este Oil and Gas Field (Neuquén, Argentina)","type":"field","commodity":"oil/gas","status":"active","country":"Argentina","lat":-38.171,"lon":-68.372},{"id":"L100000320910","name":"Bajada del Palo Oeste Oil and Gas Field (Rio Negro, Argentina)","type":"field","commodity":"oil/gas","status":"active","country":"Argentina","lat":-38.187,"lon":-68.577},{"id":"L100000317214","name":"Bajada del Palo Oil and Gas Field (Neuquén, Argentina)","type":"field","commodity":"oil/gas","status":"active","country":"Argentina","lat":-38.148,"lon":-68.344},{"id":"L100000319527","name":"Bajiaochang Oil and Gas Field (Sichuan, China)","type":"field","commodity":"oil/gas","status":"active","country":"China","lat":31.18,"lon":105.621},{"id":"L100000317215","name":"Bajo del Choique Oil and Gas Field (Neuquén, Argentina)","type":"field","commodity":"oil/gas","status":"active","country":"Argentina","lat":-37.674,"lon":-69.139},{"id":"L100000323018","name":"Baker - Oasis Petroleum North America Llc Oil and Gas Asset (North Dakota, United States)","type":"field","commodity":"oil/gas","status":"active","country":"United States","lat":48.065,"lon":-103.612},{"id":"L100000312126","name":"Bakhilovskoye Oil and Gas Field (Khanty-Mansi Autonomous Okrug, Russia)","type":"field","commodity":"oil/gas","status":"active","country":"Russia","lat":62.47,"lon":79.65},{"id":"L100000311921","name":"Bakong Gas Field (Malaysia)","type":"field","commodity":"gas","status":"active","country":"Malaysia","lat":4.596,"lon":112.07},{"id":"L100000311644","name":"Bakr Oil and Gas Field (Egypt)","type":"field","commodity":"oil/gas","status":"active","country":"Egypt","lat":28.506,"lon":32.89},{"id":"L100000302690","name":"Baksha Oil and Gas Field (Federal Offshore, Mexico)","type":"field","commodity":"oil/gas","status":"development","country":"Mexico","lat":19.802,"lon":-92.341},{"id":"L100000320881","name":"Bakte Oil and Gas Field (Mexico)","type":"field","commodity":"oil/gas","status":"active","country":"Mexico","lat":17.846,"lon":-92.866},{"id":"L100000312219","name":"Balal Oil and Gas Field (Iran)","type":"field","commodity":"oil/gas","status":"active","country":"Iran","lat":26.303,"lon":52.536},{"id":"L100000302262","name":"Balam Oil and Gas Field (Federal Offshore, Mexico)","type":"field","commodity":"oil/gas","status":"active","country":"Mexico","lat":19.485,"lon":-91.956},{"id":"L100000312216","name":"Balaroud Oil and Gas Field (Iran)","type":"field","commodity":"oil/gas","status":"development","country":"Iran","lat":32.751,"lon":48.421},{"id":"L100000302810","name":"Balcón Oil and Gas Field (Huila, Colombia)","type":"field","commodity":"oil/gas","status":"active","country":"Colombia","lat":3.197,"lon":-75.322},{"id":"L100000301420","name":"Balder Oil and Gas Field (Norway)","type":"field","commodity":"oil/gas","status":"active","country":"Norway","lat":59.208,"lon":2.377},{"id":"L100000315325","name":"Baldpate (GB260) - Hess Oil and Gas Asset (Federal offshore, United States)","type":"field","commodity":"oil/gas","status":"active","country":"United States","lat":27.758,"lon":-91.998},{"id":"L100000321417","name":"Bald Prairie (Cv Consolidated) - Aethon Energy Operating Oil and Gas Asset (Texas, United States)","type":"field","commodity":"oil/gas","status":"active","country":"United States","lat":31.14,"lon":-96.326},{"id":"L100000321418","name":"Bald Prairie (Cv Consolidated) - Comstock Oil & Gas Oil and Gas Asset (Texas, United States)","type":"field","commodity":"oil/gas","status":"active","country":"United States","lat":31.091,"lon":-96.363},{"id":"L100000321421","name":"Bald Prairie (Cv Consolidated) - Hilcorp Energy Oil and Gas Asset (Texas, United States)","type":"field","commodity":"oil/gas","status":"active","country":"United States","lat":31.173,"lon":-96.47},{"id":"L100000313188","name":"Baldwinton Sparky Oil Pool (Saskatchewan, Canada)","type":"field","commodity":"oil","status":"active","country":"Canada","lat":52.77,"lon":-109.267},{"id":"L100000317006","name":"Baldy Butte - Wamsutter Oil and Gas Asset (Wyoming, United States)","type":"field","commodity":"oil/gas","status":"active","country":"United States","lat":41.464,"lon":-107.77},{"id":"L100000300046","name":"Baleia Anã Oil and Gas Field (Espírito Santo, Brazil)","type":"field","commodity":"oil/gas","status":"active","country":"Brazil","lat":-21.148,"lon":-39.98},{"id":"L100000302675","name":"Baleia Azul Oil and Gas Field (Espírito Santo, Brazil)","type":"field","commodity":"oil/gas","status":"active","country":"Brazil","lat":-21.325,"lon":-40.007},{"id":"L100000302674","name":"Baleia Franca Oil and Gas Field (Espírito Santo, Brazil)","type":"field","commodity":"oil/gas","status":"active","country":"Brazil","lat":-21.233,"lon":-39.957},{"id":"L100000317485","name":"Baleine 1 Oil and Gas Phase (Côte d'Ivoire)","type":"field","commodity":"oil/gas","status":"active","country":"Côte d'Ivoire","lat":4.898,"lon":-4.013},{"id":"L100000317486","name":"Baleine 2 Oil and Gas Phase (Côte d'Ivoire)","type":"field","commodity":"oil/gas","status":"active","country":"Côte d'Ivoire","lat":4.898,"lon":-4.013},{"id":"L100000302811","name":"Ballena Gas Field (Guajira, Colombia)","type":"field","commodity":"gas","status":"active","country":"Colombia","lat":11.693,"lon":-72.713},{"id":"L100000301886","name":"Ballindalloch Oil and Gas Field (United Kingdom)","type":"field","commodity":"oil/gas","status":"active","country":"United Kingdom","lat":59.338,"lon":1.6},{"id":"L100000301887","name":"Balloch Oil and Gas Field (United Kingdom)","type":"field","commodity":"oil/gas","status":"active","country":"United Kingdom","lat":58.379,"lon":0.883},{"id":"L100000317955","name":"Ballymore (MC607) - Chevron Oil and Gas Asset (Federal offshore, United States)","type":"field","commodity":"oil/gas","status":"active","country":"United States","lat":28.366,"lon":-88.241},{"id":"L100000311665","name":"Baltim East Oil Field (Egypt)","type":"field","commodity":"oil","status":"active","country":"Egypt","lat":32.03,"lon":31.163},{"id":"L100000311664","name":"Baltim North Oil Field (Egypt)","type":"field","commodity":"oil","status":"active","country":"Egypt","lat":32.03,"lon":31.163},{"id":"L100000311663","name":"Baltim South West Oil and Gas Field (Egypt)","type":"field","commodity":"oil/gas","status":"active","country":"Egypt","lat":32.102,"lon":31.05},{"id":"L100000311958","name":"Banan Oil Field (Iraq)","type":"field","commodity":"oil","status":"active","country":"Iraq","lat":36.22,"lon":43.716},{"id":"L100000317216","name":"Bandurria Centro Oil and Gas Field (Neuquén, Argentina)","type":"field","commodity":"oil/gas","status":"active","country":"Argentina","lat":-38.165,"lon":-68.84},{"id":"L100000317217","name":"Bandurria Sur Oil and Gas Field (Neuquén, Argentina)","type":"field","commodity":"oil/gas","status":"active","country":"Argentina","lat":-38.256,"lon":-68.738},{"id":"L100000317456","name":"Banga Kayo (Phase 1) Oil and Gas Field (Republic of the Congo)","type":"field","commodity":"oil/gas","status":"active","country":"Republic of the Congo","lat":-4.924,"lon":11.936},{"id":"L100000312822","name":"Bangka Oil and Gas Field (Indonesia)","type":"field","commodity":"oil/gas","status":"active","country":"Indonesia","lat":0.161,"lon":118.016},{"id":"L100000322971","name":"Banks - Continental Resources, Inc. Oil and Gas Asset (North Dakota, United States)","type":"field","commodity":"oil/gas","status":"active","country":"United States","lat":47.99,"lon":-103.342},{"id":"L100000322961","name":"Banks - Grayson Mill Operating, Llc Oil and Gas Asset (North Dakota, United States)","type":"field","commodity":"oil/gas","status":"active","country":"United States","lat":48.02,"lon":-103.233},{"id":"L100000323124","name":"Banks - Hess Bakken Investments Ii, Llc Oil and Gas Asset (North Dakota, United States)","type":"field","commodity":"oil/gas","status":"active","country":"United States","lat":48.013,"lon":-103.358},{"id":"L100000322972","name":"Banks - Oasis Petroleum North America Llc Oil and Gas Asset (North Dakota, United States)","type":"field","commodity":"oil/gas","status":"active","country":"United States","lat":47.971,"lon":-103.198},{"id":"L100000323068","name":"Banks - Whiting Oil And Gas Corporation Oil and Gas Asset (North Dakota, United States)","type":"field","commodity":"oil/gas","status":"active","country":"United States","lat":48.089,"lon":-103.18},{"id":"L100000308229","name":"Bantry Oil and Gas Field (Alberta, Canada)","type":"field","commodity":"oil/gas","status":"active","country":"Canada","lat":50.568,"lon":-111.741},{"id":"L100000305127","name":"Banyen Oil Field (Thailand)","type":"field","commodity":"oil","status":"active","country":"Thailand","lat":11.292,"lon":100.724},{"id":"L100000312824","name":"Banyu Urip Oil Field (Indonesia)","type":"field","commodity":"oil","status":"active","country":"Indonesia","lat":-7.186,"lon":111.695},{"id":"L100000317513","name":"Baobab Oil Field (Chad)","type":"field","commodity":"oil","status":"active","country":"Chad","lat":9.59,"lon":20.386},{"id":"L100000321387","name":"Baolige Oil Field (Inner Mongolia, China)","type":"field","commodity":"oil","status":"active","country":"China","lat":45.683,"lon":116.433},{"id":"L100000308230","name":"Baptiste Oil and Gas Field (Alberta, Canada)","type":"field","commodity":"oil/gas","status":"active","country":"Canada","lat":54.873,"lon":-113.366},{"id":"L100000300682","name":"Barbara (NW) Gas Field (Italy)","type":"field","commodity":"gas","status":"active","country":"Italy","lat":44.049,"lon":13.758},{"id":"L100000314944","name":"Barbour County - Diversified Oil and Gas Asset (West Virginia, United States)","type":"field","commodity":"oil/gas","status":"active","country":"United States","lat":39.156,"lon":-80.022},{"id":"L100000302409","name":"Barcodón Gas Field (Tamaulipas, Mexico)","type":"field","commodity":"gas","status":"active","country":"Mexico","lat":22.577,"lon":-97.967},{"id":"L100000300488","name":"Barenburg/Buchhorst (Buntsandstein) Gas Field (Niedersachsen, Germany)","type":"field","commodity":"gas","status":"active","country":"Germany","lat":52.645,"lon":8.767},{"id":"L100000300486","name":"Barenburg Oil and Gas Field (Germany)","type":"field","commodity":"oil/gas","status":"active","country":"Germany","lat":52.639,"lon":8.794},{"id":"L100000305055","name":"Bare Oil and Gas Field (Venezuela)","type":"field","commodity":"oil/gas","status":"active","country":"Venezuela","lat":8.941,"lon":-64.426},{"id":"L100000312031","name":"Baronia Oil Field (Malaysia)","type":"field","commodity":"oil","status":"active","country":"Malaysia","lat":4.741,"lon":113.748},{"id":"L100000310810","name":"Barossa Gas and Condensate Field (Northern Territory, Australia)","type":"field","commodity":"condensate","status":"active","country":"Australia","lat":-9.725,"lon":130.482},{"id":"L100000311650","name":"Barq Oil and Gas Field (Egypt)","type":"field","commodity":"oil/gas","status":"active","country":"Egypt","lat":29.304,"lon":28.414},{"id":"L100000317121","name":"Barquentine Oil and Gas Field (Mozambique)","type":"field","commodity":"oil/gas","status":"development","country":"Mozambique","lat":-10.72,"lon":41.018},{"id":"L100000301892","name":"Barque Oil and Gas Field (United Kingdom)","type":"field","commodity":"oil/gas","status":"active","country":"United Kingdom","lat":53.601,"lon":1.6},{"id":"L100000302812","name":"Barquereña Oil Field (Casanare, Colombia)","type":"field","commodity":"oil","status":"active","country":"Colombia","lat":5.39,"lon":-71.872},{"id":"L100000310816","name":"Barracouta West Oil and Gas Field (Victoria, Australia)","type":"field","commodity":"oil/gas","status":"active","country":"Australia","lat":-38.295,"lon":147.618},{"id":"L100000300049","name":"Barracuda Oil and Gas Field (Rio de Janeiro, Brazil)","type":"field","commodity":"oil/gas","status":"active","country":"Brazil","lat":-22.564,"lon":-40.241},{"id":"L100000317218","name":"Barrancas Oil and Gas Field (Mendoza, Argentina)","type":"field","commodity":"oil/gas","status":"active","country":"Argentina","lat":-33.173,"lon":-68.781},{"id":"L100000316892","name":"Barrel Springs - Crowheart Oil and Gas Asset (Wyoming, United States)","type":"field","commodity":"oil/gas","status":"active","country":"United States","lat":41.349,"lon":-107.855},{"id":"L100000300489","name":"Barrien Gas Field (Germany)","type":"field","commodity":"gas","status":"active","country":"Germany","lat":52.978,"lon":8.829},{"id":"L100000317219","name":"Barrosa Norte Oil and Gas Field (Neuquén, Argentina)","type":"field","commodity":"oil/gas","status":"active","country":"Argentina","lat":-38.711,"lon":-68.867},{"id":"L100000313189","name":"Barthel Colony Gas Pool (Saskatchewan, Canada)","type":"field","commodity":"gas","status":"active","country":"Canada","lat":53.928,"lon":-109.162},{"id":"L100000305175","name":"Barúa Oil Field (Venezuela)","type":"field","commodity":"oil","status":"active","country":"Venezuela","lat":9.811,"lon":-70.937},{"id":"L100000308237","name":"Bashaw Oil and Gas Field (Alberta, Canada)","type":"field","commodity":"oil/gas","status":"active","country":"Canada","lat":52.588,"lon":-113.028},{"id":"L100000313892","name":"Bashrush Gas Field (Egypt)","type":"field","commodity":"gas","status":"active","country":"Egypt","lat":31.76,"lon":31.151},{"id":"L100000308238","name":"Basing Oil and Gas Field (Alberta, Canada)","type":"field","commodity":"oil/gas","status":"active","country":"Canada","lat":53.147,"lon":-116.877},{"id":"L100000302813","name":"Bastidas Oil Field (Casanare, Colombia)","type":"field","commodity":"oil","status":"active","country":"Colombia","lat":4.884,"lon":-71.864},{"id":"L100000311002","name":"Batan (Neconde) Oil and Gas Field (Nigeria)","type":"field","commodity":"oil/gas","status":"active","country":"Nigeria","lat":5.574,"lon":5.48},{"id":"L100000311003","name":"Batan (NPDC) Oil and Gas Field (Nigeria)","type":"field","commodity":"oil/gas","status":"active","country":"Nigeria","lat":5.574,"lon":5.48},{"id":"L100000317602","name":"Bati-Raman Oil Field (Türkiye)","type":"field","commodity":"oil","status":"active","country":"Türkiye","lat":37.817,"lon":41.14},{"id":"L100000313191","name":"Battle Creek S U Shaun Oil Pool (Saskatchewan, Canada)","type":"field","commodity":"oil","status":"active","country":"Canada","lat":49.167,"lon":-109.412},{"id":"L100000313197","name":"Battrum North Roseray Oil Pool (Saskatchewan, Canada)","type":"field","commodity":"oil","status":"active","country":"Canada","lat":50.579,"lon":-108.204},{"id":"L100000313198","name":"Battrum Roseray Oil Pool (Saskatchewan, Canada)","type":"field","commodity":"oil","status":"active","country":"Canada","lat":50.537,"lon":-108.269},{"id":"L100000321152","name":"Batyrbayskoye Oil and Gas Field (Russia)","type":"field","commodity":"oil/gas","status":"active","country":"Russia","lat":56.83,"lon":55.812},{"id":"L100000301421","name":"Bauge Oil and Gas Field (Norway)","type":"field","commodity":"oil/gas","status":"active","country":"Norway","lat":64.349,"lon":7.462},{"id":"L100000300053","name":"Baúna Oil and Gas Field (São Paulo, Brazil)","type":"field","commodity":"oil/gas","status":"active","country":"Brazil","lat":-26.437,"lon":-46.527},{"id":"L100000312363","name":"Bavlinskoye Oil Field (Republic of Tatarstan, Russia)","type":"field","commodity":"oil","status":"active","country":"Russia","lat":54.4,"lon":53.132},{"id":"L100000321105","name":"Bavuca South Oil Field (Angola)","type":"field","commodity":"oil","status":"active","country":"Angola","lat":-6.285,"lon":11.26},{"id":"L100000318155","name":"Bayan Oil and Gas Field (Malaysia)","type":"field","commodity":"oil/gas","status":"active","country":"Malaysia","lat":3.448,"lon":112.367},{"id":"L100000321354","name":"Bayantala Oil Field (Inner Mongolia, China)","type":"field","commodity":"oil","status":"active","country":"China","lat":48.425,"lon":117.244},{"id":"L100000313199","name":"Bayhurst Viking Gas Pool (Saskatchewan, Canada)","type":"field","commodity":"gas","status":"active","country":"Canada","lat":51.019,"lon":-109.419},{"id":"L100000313200","name":"Bayhurst West Viking Gas Pool (Saskatchewan, Canada)","type":"field","commodity":"gas","status":"active","country":"Canada","lat":51.097,"lon":-109.616},{"id":"L100000314562","name":"Bay Marchand Block 2 Offshore - Cantium Oil and Gas Asset (Louisiana, United States)","type":"field","commodity":"oil/gas","status":"active","country":"United States","lat":29.09,"lon":-90.149},{"id":"L100000317220","name":"Bayo Oil and Gas Field (Santa Cruz, Argentina)","type":"field","commodity":"oil/gas","status":"active","country":"Argentina","lat":-46.081,"lon":-69.04},{"id":"L100000314317","name":"Bayou Bouillon - Bayou Bouillon Oil and Gas Asset (Louisiana, United States)","type":"field","commodity":"oil/gas","status":"active","country":"United States","lat":30.267,"lon":-91.614},{"id":"L100000315612","name":"Bayou Couba - Llox Oil and Gas Asset (Louisiana, United States)","type":"field","commodity":"oil/gas","status":"active","country":"United States","lat":29.805,"lon":-90.303},{"id":"L100000315655","name":"Bayou Ferblanc - Marquis Oil and Gas Asset (Louisiana, United States)","type":"field","commodity":"oil/gas","status":"active","country":"United States","lat":29.334,"lon":-90.225},{"id":"L100000314576","name":"Bayou Goreau - Castex Oil and Gas Asset (Louisiana, United States)","type":"field","commodity":"oil/gas","status":"active","country":"United States","lat":29.195,"lon":-91.105},{"id":"L100000315977","name":"Bayou Hebert - Petroquest Oil and Gas Asset (Louisiana, United States)","type":"field","commodity":"oil/gas","status":"active","country":"United States","lat":29.83,"lon":-91.989},{"id":"L100000315333","name":"Bayou Long - Highlander Gas Asset (Louisiana, United States)","type":"field","commodity":"gas","status":"active","country":"United States","lat":29.952,"lon":-91.323},{"id":"L100000316430","name":"Bayou Sale - Texas Petroleum Investment Oil and Gas Asset (Louisiana, United States)","type":"field","commodity":"oil/gas","status":"active","country":"United States","lat":29.604,"lon":-91.53},{"id":"L100000317634","name":"Bayou San Miguel - Chesapeake Operating, L.L.C. Gas Asset (Louisiana, United States)","type":"field","commodity":"gas","status":"active","country":"United States","lat":31.75,"lon":-93.58},{"id":"L100001081988","name":"Bayou San Miguel - Expand Operating Gas Asset (Louisiana, United States)","type":"field","commodity":"gas","status":"active","country":"United States","lat":31.75,"lon":-93.58},{"id":"L100000315224","name":"Bayou San Miguel - GEP Haynesville Gas Asset (Louisiana, United States)","type":"field","commodity":"gas","status":"active","country":"United States","lat":31.73,"lon":-93.567},{"id":"L100000315466","name":"Bayou San Miguel - Indigo Minerals Gas Asset (Louisiana, United States)","type":"field","commodity":"gas","status":"active","country":"United States","lat":31.747,"lon":-93.619},{"id":"L100000317732","name":"Bayou San Miguel - Swn Production (Louisiana), Llc Gas Asset (Louisiana, United States)","type":"field","commodity":"gas","status":"active","country":"United States","lat":31.729,"lon":-93.566},{"id":"L100000316574","name":"Bayou San Miguel - Vine Gas Asset (Louisiana, United States)","type":"field","commodity":"gas","status":"active","country":"United States","lat":31.728,"lon":-93.59},{"id":"L100000315402","name":"Bay St Elaine - Hilcorp Oil and Gas Asset (Louisiana, United States)","type":"field","commodity":"oil/gas","status":"active","country":"United States","lat":29.169,"lon":-90.653},{"id":"L100000311959","name":"Bazerkan Oil Field (Iraq)","type":"field","commodity":"oil","status":"active","country":"Iraq","lat":31.936,"lon":47.372},{"id":"L100000319120","name":"Bazhong Gas Field (Sichuan, China)","type":"field","commodity":"gas","status":"development","country":"China","lat":31.862,"lon":106.78},{"id":"L100000313201","name":"Beacon Hill Mannville Gas Pool (Saskatchewan, Canada)","type":"field","commodity":"gas","status":"active","country":"Canada","lat":54.399,"lon":-109.598},{"id":"L100000313202","name":"Beacon Hill S Mannville Gas Pool (Saskatchewan, Canada)","type":"field","commodity":"gas","status":"active","country":"Canada","lat":54.268,"lon":-109.563},{"id":"L100000313203","name":"Beacon Hill W Mannville Gas Pool (Saskatchewan, Canada)","type":"field","commodity":"gas","status":"active","country":"Canada","lat":54.255,"lon":-109.828},{"id":"L100000313204","name":"Bear Ck Mannville Gas Pool (Saskatchewan, Canada)","type":"field","commodity":"gas","status":"active","country":"Canada","lat":54.558,"lon":-109.567},{"id":"L100000316379","name":"Bear Creek - Tanos Oil and Gas Asset (Louisiana, United States)","type":"field","commodity":"oil/gas","status":"active","country":"United States","lat":32.413,"lon":-92.979},{"id":"L100000323021","name":"Bear Creek - Xto Energy Inc Oil and Gas Asset (North Dakota, United States)","type":"field","commodity":"oil/gas","status":"active","country":"United States","lat":47.59,"lon":-102.886},{"id":"L100000323031","name":"Bear Den - Petroshale (Us) Inc. Oil and Gas Asset (North Dakota, United States)","type":"field","commodity":"oil/gas","status":"active","country":"United States","lat":47.702,"lon":-102.893},{"id":"L100000323048","name":"Bear Den - Xto Energy Inc Oil and Gas Asset (North Dakota, United States)","type":"field","commodity":"oil/gas","status":"active","country":"United States","lat":47.701,"lon":-102.915},{"id":"L100000321424","name":"Bear Grass (Cotton Valley Cons) - Hilcorp Energy Oil and Gas Asset (Texas, United States)","type":"field","commodity":"oil/gas","status":"active","country":"United States","lat":31.429,"lon":-96.221},{"id":"L100000316435","name":"Bear Head Creek, South - Texegy Oil and Gas Asset (Louisiana, United States)","type":"field","commodity":"oil/gas","status":"active","country":"United States","lat":30.511,"lon":-93.517},